{"Master-CM1993306":{"dealer":"Benco","lat":41.55792,"lng":-73.06179,"address":"160 Robbins St Waterbury"},"Master-CM1479197":{"notes":"42 north test","lat":41.8104,"lng":-72.5165,"address":"238 Tolland Tpke, Manchester, 06042"},"Master-CM1759565":{"lat":41.03667,"lng":-73.66757,"address":"50 Glenville St, Greenwich, 06831"},"Master-CM713564":{"dealer":"Benco","lat":42.10525,"lng":-70.94597,"address":"477 Washington St Abington"},"Master-CM188461":{"lat":41.67058,"lng":-72.78015,"address":"96 E Main St, New Britain, 06051","phone":"8602232000"},"Master-CM608043":{"lat":41.39348,"lng":-73.44928,"address":"155 Main St, Danbury, 06810","phone":"2035877999"},"Master-CM1071703":{"doctor":"Dr. Amandeep Singh","dealerRep":"Benco","notes":"https://www.advanceddentistryct.com/\n\nResto- 0\nTotal Care - $3500\n\nDr. Singh no longer at practice \nNikita FD interested in booking lnl","visitNotes":"Q1 promos","lastVisit":"2023-01-24","lat":42.1049238,"lng":-72.58162229999999,"address":"305 State St springfield ma","phone":"8608458872","dealer_rep":"Benco"},"Master-CM135558":{"dealer":"Darby","lat":42.18001,"lng":-70.90409,"address":"50 Derby St Hingham"},"Master-CM1074908":{"lat":41.1099,"lng":-73.40967,"address":"148 East Ave, Norwalk, 06851","phone":"2038386474"},"Master-CM058531":{"dealerRep":"Dave R - Benco","notes":"Operations Manager Jason\n\nDr. Ress , going on ski trip to vail","visitNotes":"met with Dr. Vess and talked skiing for w0 minutes.\n\nSamps:\nSS\nHerc\nMaxcem\nvertise\nOBU OBU Xtra\nNX3\nBuild It","lastVisit":"2024-01-31","feel":"5.0","lat":41.76932,"lng":-72.65449,"address":"477 Connecticut Blvd, East Hartford, 06108","phone":"8602894080","cell":"860-909-8080","dealer_rep":"Dave R - Benco"},"Master-CM204387":{"lat":41.14999,"lng":-73.42512,"address":"454 Main Ave, Norwalk, 06851","phone":"2038491776"},"Master-CM071678":{"lat":41.62719,"lng":-72.74857,"address":"39 Webster Square Rd, Berlin, 06037","phone":"8608283933"},"Master-CM066824":{"dealer":"Darby","lat":41.62344,"lng":-70.93297,"address":"140 Dartmouth St New Bedford"},"Master-CM858073":{"dealer":"Schein","lat":40.98852,"lng":-73.80805,"address":"30 Popham Rd Scarsdale"},"Master-CM102497":{"orders":"Cindy","lat":41.7371,"lng":-72.79293,"address":"231 Farmington Ave, Farmington, 06032","phone":"8602841032"},"Master-CM051576":{"dealerRep":"Direct","lat":41.23014,"lng":-73.1518,"address":"95 Armory Rd, Stratford, 06614","phone":"2033771331","dealer_rep":"Direct"},"Master-CM1776322":{"lat":41.23014,"lng":-73.1518,"address":"95 Armory Rd Ste 2, Hartford, 06144"},"Master-CM253643":{"lat":41.06148,"lng":-73.53407,"address":"44 Strawberry Hill Ave, Stamford, 06902","phone":"2033249239"},"Master-CM109446":{"dealer":"Schein","lat":41.19795,"lng":-73.72435,"address":"359 E Main St Mount Kisco"},"Master-CM1762589":{"lat":41.8403,"lng":-72.49784,"address":"95 Hockanum Blvd, Vernon, 06066"},"Master-CM1115883":{"lat":41.19985,"lng":-73.13036,"address":"2876 Main St, Stratford, 06614","phone":"2033335197"},"Master-CM1200082":{"lat":41.14507,"lng":-73.25176,"address":"1055 Post Rd, Fairfield, 06824"},"Master-CM2000243":{"dealer":"Schein","lat":41.38891,"lng":-73.95698,"address":"606 Thayer Rd West Point"},"Master-CM106623":{"dealer":"Schein","lat":41.88099,"lng":-72.7039,"address":"1050 Day Hill Rd Windsor","phone":"8606880888"},"Master-CM080691":{"dealer":"Schein","lat":41.85854,"lng":-71.47891,"address":"2148 Mineral Spring Ave North Providence"},"Master-CM311334":{"lat":41.0964214,"lng":-73.6000591,"address":"12 Carissa Ln, Hartford, 06156","phone":"8602730123"},"Master-CM1705023":{"lat":41.21779,"lng":-73.21435,"address":"4200 Main St, Bridgeport, 06606"},"Master-CM1728639":{"lat":41.83266,"lng":-72.49357,"address":"179 Talcottville Rd, Vernon, 06066"},"Master-CM1285068":{"lat":41.6703,"lng":-72.77884,"address":"135 E Main St, New Britain, 06051","phone":"8603576899"},"Master-CM1728544":{"lat":41.81566,"lng":-73.09535,"address":"1171 E Main St, Torrington, 06790"},"Master-CM1429990":{"dealer":"Schein","lat":41.39298,"lng":-74.33756,"address":"5 Hatfield Ln Goshen"},"Master-CM1166474":{"dealer":"Schein","lat":41.38053,"lng":-72.15055,"address":"909 Hartford Tpke Waterford"},"Master-CM098398":{"dealer":"Benco","lat":41.31084,"lng":-72.91991,"address":"375 Orange St New Haven"},"Master-CM869355":{"lat":41.11409,"lng":-73.4082,"address":"120 East Ave, Norwalk, 06851","phone":"2038530880"},"Master-CM127292":{"lat":41.98319,"lng":-72.6562,"address":"133 Mountain Rd, Suffield, 06078","phone":"8606687303"},"Master-CM214709":{"doctor":"Dr. Kay","orders":"Kaitlin Corcoran","dealerRep":"Vincent Parrillo","accelLevel":"Diamond","dealer":"All Other","lat":41.42174,"lng":-74.16837,"address":"32 South St Washingtonville","dealer_rep":"Vincent Parrillo"},"Master-CM110239 Total":{"notes":"NTI Polishers\nDiamond Disc\n\nFibercore Post\nTemp Bond\n\nTried Maxcem","lat":41.31869,"lng":-72.94689,"address":"419 Whalley Ave, New Haven, 06511","phone":"2037870520"},"Master-CM110239":{"dealerRep":"Jay Gannon Patterson","lat":41.3186691,"lng":-72.9467702,"address":"419 Whalley Avenue, New Haven, CT, USA","email":"alanfriedlerdmd@gmail.com","phone":"2037870520","notes":"NTI Polishers\nDiamond Disc\n\nFibercore Post\nTemp Bond\n\nTried Maxcem"},"Master-CM132769":{"lat":41.55215,"lng":-72.97246,"address":"93 Wedgewood Dr, Waterbury, 06705","phone":"2037532274"},"Master-CM272315":{"dealer":"Schein","lat":41.60103,"lng":-72.88047,"address":"31 Liberty St Southington"},"Master-CM1328370":{"lat":41.66554,"lng":-72.79098,"address":"292 W Main St, New Britain, 06052","phone":"8602242631"},"Master-CM156954":{"lat":41.57802,"lng":-73.4089,"address":"34 Church St, New Milford, 06776","phone":"8603549000"},"Master-CM1047861":{"dealer":"Darby","lat":41.12682,"lng":-73.71293,"address":"20 Maple Ave Armonk"},"Master-CM078949":{"lat":41.0302,"lng":-73.56765,"address":"279 Sound Beach Ave, Old Greenwich, 06870","phone":"2036373102"},"Master-CM189001":{"dealer":"Schein","lat":42.12172,"lng":-71.17864,"address":"47 Pond St Sharon"},"Master-CM705315":{"visitNotes":"Met with Jana to discuss merger with New Jersey dental office.  Account is currently down in Sonicfill and Optibond Universal Extra","lastVisit":"2025-05-20","dealer":"All Other","lat":41.39264,"lng":-73.45514,"address":"47 West St Danbury","email":"msuscal@allaboutkidsteeth.com","doctor":"Dr. Strazza","phone":"2033235439","dealer_rep":"Rich F Schein","notes":"Office got bought out by mid- market account in New Jersey.","feel":"4"},"Master-CM491938":{"feel":"3.0","accelLevel":"Platinum","dealer":"All Other","lat":41.05407,"lng":-73.53563,"address":"127 Greyrock Pl Stamford"},"Master-CM9814079":{"feel":"4.0","accelLevel":"Platinum","dealer":"All Other","lat":41.05407,"lng":-73.53563,"address":"127 Greyrock Pl Stamford"},"Master-CM074958":{"dealer":"Schein","lat":41.92093,"lng":-72.66718,"address":"2 Concorde Way Windsor Locks","phone":"8606231116"},"Master-CM103941":{"lat":41.92873,"lng":-72.62761,"address":"32 Main St, Windsor Locks, 06096","phone":"8606233244"},"Master-CM074899":{"lat":41.54632,"lng":-73.05576,"address":"417 Highland Ave, Waterbury, 06708","phone":"2037531419"},"Master-CM9827621":{"dealer":"All Other","lat":41.50392,"lng":-71.3219,"address":"43 Smith Rd Newport"},"Master-CM714264":{"dealer":"All Other","lat":41.19769,"lng":-73.20079,"address":"2566 Main St Bridgeport"},"Master-CM219254":{"lat":41.15977,"lng":-73.42121,"address":"761 Main Ave, Norwalk, 06851","phone":"2039083170"},"Master-CM916078":{"dealer":"Darby","lat":42.09128,"lng":-70.70521,"address":"16 Snow Rd Marshfield"},"Master-CM741069":{"lat":41.22348,"lng":-73.2183,"address":"4699 Main St, Bridgeport, 06606","phone":"2033689016"},"Master-CM310182":{"dealer":"Schein","lat":41.68059,"lng":-71.16285,"address":"230 Rhode Island Ave Fall River"},"Master-CM1610282":{"dealer":"Patterson","lat":41.92289,"lng":-71.09014,"address":"247 Broadway Taunton"},"Master-CM731906":{"lat":41.76595,"lng":-72.67357,"address":"777 Main St, Hartford, 06103","phone":"8048685406"},"Master-CM290275":{"lat":41.1099,"lng":-73.40967,"address":"148 East Ave, Norwalk, 06851","phone":"2039391616"},"Master-CM939454 Total":{"lat":41.05376,"lng":-73.56137,"address":"76 Progress Dr, Stamford, 06902","phone":"3155153015"},"Master-CM1103319":{"lat":41.18585,"lng":-73.21695,"address":"83 East Ave, Bridgeport, 06604"},"Master-CM097048":{"doctor":"Dr. V","visitNotes":"Left sample of Build-It FR","lastVisit":"2022-11-16","lat":41.69471,"lng":-72.72297,"address":"1247 Main St, Newington, 06111","phone":"8606665722"},"Master-CM934247":{"lat":41.93038,"lng":-73.07587,"address":"115 Spencer St, Winsted, 06098","phone":"8607385814"},"Master-CM1089276":{"lat":41.02805,"lng":-73.62961,"address":"4 Dearfield Dr, Greenwich, 06831","phone":"2034225437"},"Master-CM680230":{"dealer":"Schein","lat":41.62586,"lng":-70.96353,"address":"570 Hawthorn St North Dartmouth"},"Master-CM233770":{"lat":41.84859,"lng":-72.81265,"address":"373 Hopmeadow St, Weatogue, 06089","phone":"8606513319"},"Master-CM228349":{"dealer":"Patterson","lat":41.07541,"lng":-73.46986,"address":"24 Old Kings Hwy S Darien"},"Master-CM066177":{"lat":41.53778,"lng":-73.2064,"address":"387 Main St S, Woodbury, 06798","phone":"2032635300"},"Master-CM215734":{"lat":41.21471,"lng":-73.22751,"address":"2979 Madison Ave, Bridgeport, 06606","phone":"2033727700"},"Master-CM185094":{"lat":41.11544,"lng":-73.41666,"address":"10 Berkeley St, Norwalk, 06850","phone":"2038991636"},"Master-CM201219":{"lat":41.78812,"lng":-72.5238,"address":"155 Main St, Manchester, 06042","phone":"8606461515"},"Master-CM885566":{"lat":41.14999,"lng":-73.42512,"address":"454 Main Ave, Norwalk, 06851"},"Master-CM1593739":{"lat":41.82431,"lng":-72.55247,"address":"490 Buckland Rd, South Windsor, 06074"},"Master-CM132783":{"lat":41.83499,"lng":-72.49304,"address":"219 Talcottville Rd, Vernon Rockville, 06066","phone":"8608750769"},"Master-CM275998":{"lat":41.6343,"lng":-72.78919599999999,"address":"56 Chamberlain Hwy, Mount Kisco, 10549","phone":"9146667566"},"Master-CM080404":{"lat":41.76928,"lng":-72.64702,"address":"65 Connecticut Blvd, East Hartford, 06108","phone":"8602895423"},"Master-CM077429":{"lat":41.66544,"lng":-72.63831,"address":"810 Old Main St, Rocky Hill, 06067","phone":"8607218382"},"Master-CM131920":{"dealer":"Darby","lat":41.42465,"lng":-74.42797,"address":"225 Dolson Ave Middletown"},"Master-CM071046":{"dealer":"Benco","lat":41.30684,"lng":-72.93213,"address":"123 York St New Haven","phone":"2037772513"},"Master-CM533118":{"lat":41.37204,"lng":-73.41139,"address":"8 School St, Bethel, 06801","phone":"2037927370"},"Master-CM180748":{"lat":41.28313,"lng":-73.49729,"address":"22 Prospect St, Ridgefield, 06877","phone":"2034384640"},"Master-CM118722":{"lat":41.19904,"lng":-73.20143,"address":"2660 Main St, Bridgeport, 06606","phone":"2035761608"},"Master-CM100658":{"lat":41.10994,"lng":-73.40753,"address":"160 East Ave, Norwalk, 06851","phone":"2038669254"},"Master-CM199844":{"lat":41.18649,"lng":-73.12893,"address":"937 Stratford Ave, Stratford, 06615","phone":"2039232110"},"Master-CM094455":{"lat":41.75988,"lng":-72.74646,"address":"1005 Farmington Ave, West Hartford, 06107","phone":"8602361316"},"Master-CM1094728":{"accelLevel":"Platinum","lat":41.21157,"lng":-73.17875,"address":"2690 E Main St, Bridgeport, 06610","phone":"8606450111"},"Master-CM286123":{"lat":41.87832,"lng":-72.97858,"address":"512 Main St, New Hartford, 06057","phone":"8603793830"},"Master-CM107192":{"dealer":"Patterson","lat":41.73569,"lng":-72.79511,"address":"263 Farmington Ave Farmington","doctor":"Dr. Kia","phone":"8606792000","dealer_rep":"Schein"},"Master-CM108158":{"dealer":"Schein","lat":41.58373,"lng":-71.99595,"address":"193 River Rd Lisbon"},"Master-CM274713":{"lat":41.58072,"lng":-73.0321,"address":"188 Chase Ave, Waterbury, 06704","phone":"2037543818"},"Master-CM486648":{"lat":41.82064,"lng":-73.08423,"address":"1692 E Main St, Torrington, 06790","phone":"8602944023"},"Master-CM151238":{"doctor":"Dr. Kia","orders":"Bruna","notes":"have Brunas Cell\ngoing to order:\nSS, Chroma, OB, SonicFill, Zircut, Herc Flow, Seal tight, Cavi. collect for Spiff","lastVisit":"2022-05-19","lat":41.71698,"lng":-72.76306,"address":"1600 S East Rd, Farmington, 06032","phone":"8606760050"},"Master-CM119004":{"visitNotes":"installed seal tight. Dr. Marcelo is main Doctor, she currently uses our optibond solo.\ngave her some optibond Universal","lastVisit":"2022-03-24","dealer":"Schein","lat":41.99139,"lng":-72.57937,"address":"25 Hazard Ave Enfield","phone":"8602532432","dealer_rep":"DSO Schein","notes":"Owner - Dr. Dermesropian\n\nDr. Marcelo main doctor - Smitkon is last name\nshe was willing to meet with me but never used the products I left for her\n\nFind out PM - what Kerr products they are currently","feel":"3"},"Master-CM192494":{"dealer":"Schein","lat":42.13818,"lng":-70.84146,"address":"1207 Washington St Hanover"},"Master-CM1240951":{"dealer":"Schein","lat":41.674644,"lng":-70.3052399,"address":"1070 Iyannough Rd Ste A20 Festival @ Hyannis/Dr Jennifer A Taylor Hyannis"},"Master-CM202094":{"lat":41.15936,"lng":-73.41928,"address":"652 Main Ave, Norwalk, 06851","phone":"2038545458"},"Master-CM114594":{"dealer":"Schein","lat":41.92497,"lng":-71.35813,"address":"227 Washington St Attleboro"},"Master-CM094561":{"dealer":"Schein","lat":42.09389,"lng":-71.0502,"address":"165 Westgate Dr Brockton"},"Master-CM168213":{"lastVisit":"2022-03-22","dealer":"Schein","lat":41.41416,"lng":-73.45663,"address":"1 Padanaram Rd Danbury","phone":"2037940357","notes":"Brandon PM\nnew to area from Buffalo\n\ninstalled Seal tight\nleft Simplicity kit\n\nstated they are currently using Optibond\n\nNew Manager is Rob"},"Master-CM243352":{"dealer":"Schein","lat":42.25861,"lng":-71.16799,"address":"162 Providence Hwy Dedham"},"Master-CM133356":{"dealer":"Schein","lat":41.18231,"lng":-73.25393,"address":"2209 Black Rock Tpke Fairfield"},"Master-CM1149455":{"lat":41.18212,"lng":-73.2535,"address":"2209 Black Rock Tpke, Fairfield, 06825","phone":"3154546000"},"Master-CM1754411":{"lat":41.7243,"lng":-72.61579,"address":"2955 Main St, Glastonbury, 06033"},"Master-CM1707708":{"lat":41.72369,"lng":-72.61603,"address":"2941 Main St, Glastonbury, 06033"},"Master-CM1082388":{"lat":41.72757,"lng":-72.61672,"address":"3043A Main St, Glastonbury, 06033","phone":"8606579212"},"Master-CM324563":{"dealer":"Schein","lat":41.81484,"lng":-71.49637,"address":"1384 Atwood Ave Johnston"},"Master-CM545392":{"dealer":"Schein","lat":41.97919,"lng":-71.50945,"address":"18 Dowling Village Blvd North Smithfield"},"Master-CM368707":{"orders":"Kevin","dealerRep":"DSO Schein","lat":41.81412,"lng":-72.52607,"address":"179 Deming St, Manchester, 06042","phone":"3154546000"},"Master-CM1799511":{"dealer":"Schein","lat":41.31275,"lng":-73.8682,"address":"3130 E Main St Mohegan Lake"},"Master-CM1945865":{"dealer":"Schein","lat":41.6420663,"lng":-70.98564499999999,"address":"25 A Faunce Corner Rd Towne Center/Dr Dongho Kim North Dartmouth"},"Master-CM202264":{"dealer":"Schein","lat":41.69637,"lng":-72.90592,"address":"1128 Farmington Ave Bristol","doctor":"Dr. Y","phone":"8605851716","dealer_rep":"DSO Schein","notes":"Rona is the Regional manager\nOffice Manager Stephen MacFadden\ndial 2 when calling\nstephen.macfadden@aspendental.com"},"Master-CM151455":{"lat":41.37294,"lng":-72.91632,"address":"2335 Dixwell Ave, Hamden, 06514","phone":"2032482026"},"Master-CM205268":{"dealer":"Schein","lat":41.95533,"lng":-70.71509,"address":"106 Colony Place Rd Plymouth"},"Master-CM094475":{"dealer":"Schein","lat":41.79431,"lng":-71.32454,"address":"20 Commerce Way Seekonk"},"Master-CM1066790":{"dealer":"Schein","lat":42.1552674,"lng":-71.20338009999999,"address":"116 Providence Hwy Walpole Mall East Walpole"},"Master-CM1987539":{"dealer":"Schein","lat":41.78136,"lng":-70.74545,"address":"1 Seth F Tobey Rd Bldg B Jennifer Taylor Wareham"},"Master-CM1395576":{"dealer":"Schein","lat":41.71251,"lng":-71.48699,"address":"1000 Bald Hill Rd Warwick"},"Master-CM733580":{"dealer":"Schein","lat":41.27121,"lng":-72.97259,"address":"354 Saw Mill Rd West Haven","phone":"3154546000"},"Master-CM9827414":{"dealer":"Schein","lat":41.04337,"lng":-73.80159,"address":"499 Tarrytown Rd White Plains"},"Master-CM1138376":{"lat":41.40667,"lng":-73.41785,"address":"74 Newtown Rd, Danbury, 06810","phone":"3154546000"},"Master-CM1077265":{"dealer":"Schein","lat":41.45428,"lng":-74.38258,"address":"61 Orange Plaza Ln Orange Plaza Middletown"},"Master-CM898052":{"lat":41.76918,"lng":-72.52052,"address":"935 Main St, Manchester, 06040","phone":"8606490238"},"Master-CM116973":{"lat":41.81888,"lng":-72.72785,"address":"580 Cottage Grove Rd, Bloomfield, 06002","phone":"8602420505"},"Master-CM904742":{"dealer":"Darby","lat":41.49053,"lng":-73.41516,"address":"940 Federal Rd Brookfield"},"Master-CM053172":{"visitNotes":"met with Jodie setup lnl for Nov 3rd \nshe is training new girl to do ordering","lastVisit":"2022-10-04","lat":41.99283,"lng":-72.57243,"address":"64 Palomba Dr, Enfield, 06082","phone":"8607452712"},"Master-CM122405":{"lat":41.76262,"lng":-72.73998,"address":"928 Farmington Ave, West Hartford, 06107","phone":"8602332322"},"Master-CM121719":{"lat":41.67185,"lng":-72.64531,"address":"2049 Silas Deane Hwy, Rocky Hill, 06067","phone":"8605635786"},"Master-CM1577127":{"lat":41.81553,"lng":-72.86615,"address":"20 W Avon Rd, Avon, 06001"},"Master-CM216182":{"lat":41.81553,"lng":-72.86615,"address":"20 W Avon Rd, Avon, 06001","phone":"8606733249"},"Master-CM1240148":{"lat":41.4767,"lng":-73.40836,"address":"31 Old Route 7, Brookfield, 06804"},"Master-CM225240":{"lat":41.82416,"lng":-73.1157,"address":"1 Torrington Office Plz, Torrington, 06790","phone":"8604826444"},"Master-CM193346 Total":{"lat":42.59283,"lng":-72.23136,"address":"38 Exchange St, Athol, 01331","phone":"9782498545"},"Master-CM093526":{"lat":41.0788,"lng":-73.5335,"address":"555 Newfield Ave, Stamford, 06905","phone":"2039211995"},"Master-CM191555":{"dealer":"Benco","lat":41.21793,"lng":-73.71745,"address":"280 N Bedford Rd Mount Kisco"},"Master-CM284529":{"dealer":"Schein","lat":41.91267,"lng":-71.51699,"address":"1 Thurber Blvd Smithfield"},"Master-CM145846":{"dealer":"Schein","lat":41.94866,"lng":-71.34076,"address":"481 Old Post Rd North Attleboro"},"Master-CM094361":{"dealer":"Darby","lat":41.24167,"lng":-73.03456,"address":"59 Turnpike Sq Milford"},"Master-CM066450":{"orders":"Shannon","notes":"Shannon Malentacchi - Dental Asst/PM\n\nDr. Daniel B Geelan -\nDirect# 860-673-0451","lat":41.81553,"lng":-72.86615,"address":"20 W Avon Rd, Avon, 06001","phone":"8606730451","cell":"860-673-0451"},"Master-CM299864":{"doctor":"Dr. Mentasi","notes":"CRM Lead - high volume","lat":41.81269,"lng":-72.86446,"address":"44 Dale Rd, Avon, 06001","phone":"8606776405"},"Master-CM047082":{"lat":41.81358,"lng":-72.86407,"address":"34 Dale Rd, Avon, 06001","phone":"8606748079"},"Master-CM805143":{"lat":41.81166,"lng":-72.83528,"address":"8 Canal Ct, Avon, 06001"},"Master-CM1495113":{"dealer":"Patterson","lat":41.8095,"lng":-72.82782,"address":"32 E Main St Avon"},"Master-CM415815":{"dealerRep":"Jay Gannon Patterson","lat":41.8089,"lng":-72.82764,"address":"32 E Main St, Avon, 06001","phone":"8606781140","dealer_rep":"Jay Gannon Patterson"},"Master-CM128318":{"doctor":"Dr. Gram","dealerRep":"Scott - Benco","visitNotes":"co travel with Scott, left Nexus RMGI, SS, Zircut diamonds","lastVisit":"2022-11-22","lat":41.81689,"lng":-72.82876,"address":"100 Simsbury Rd, Avon, 06001","phone":"8606060066","dealer_rep":"Scott - Benco"},"Master-CM583169":{"lat":41.29582,"lng":-73.22894,"address":"140 Monroe Tpke, Trumbull, 06611","phone":"2033723626"},"Master-CM1233980":{"lat":41.73331,"lng":-72.87632,"address":"4 Harriman Dr, Farmington, 06032","phone":"8606787899"},"Master-CM901070":{"lat":41.80951,"lng":-73.10643,"address":"686 E Main St, Torrington, 06790"},"Master-CM287919":{"lat":41.19917,"lng":-73.13342,"address":"1100 Barnum Ave, Stratford, 06614","phone":"7162395889"},"Master-CM913364":{"lat":41.37582,"lng":-73.49103,"address":"51-53 Kenosia Ave, Danbury, 06810","phone":"2037905700"},"Master-CM179700":{"dealer":"Darby","lat":41.60745,"lng":-72.87866,"address":"248 N Main St Southington"},"Master-CM1987591":{"dealer":"Schein","lat":41.58301,"lng":-71.49483,"address":"1051 Ten Rod Rd Unit 5 Frank E Schiano North Kingstown"},"Master-CM1572811":{"dealer":"Benco","lat":40.91726,"lng":-73.85914,"address":"945 Yonkers Ave Yonkers"},"Master-CM187691":{"dealer":"Schein","lat":42.08494,"lng":-71.47176,"address":"58 Mechanic St Bellingham"},"Master-CM908902":{"lat":41.71345,"lng":-72.8129,"address":"200 Mountain Rd, Farmington, 06032"},"Master-CM590336":{"doctor":"Dr. Ko","orders":"Vivian","dealerRep":"Jay Gannon Patterson","feel":"3.0","lat":41.66986,"lng":-72.94631,"address":"21 Pleasant St, Bristol, 06010","phone":"8605828095","dealer_rep":"Jay Gannon Patterson"},"Master-CM674376":{"lat":41.66986,"lng":-72.94631,"address":"21 Pleasant St, Bristol, 06010","phone":"8605828095"},"Master-CM183235":{"lat":41.55349,"lng":-73.41799,"address":"146 Danbury Rd, New Milford, 06776","phone":"8603543924"},"Master-CM331819":{"lat":41.22348,"lng":-73.2183,"address":"4699 Main St, Bridgeport, 06606","phone":"2033742747"},"Master-CM167641":{"dealer":"Darby","lat":41.68873,"lng":-72.92942,"address":"424 Farmington Ave Bristol","phone":"8605829193"},"Master-CM166524":{"lat":41.66493,"lng":-72.79239,"address":"33 Lexington St, New Britain, 06052","phone":"8602293084"},"Master-CM112610":{"lat":41.76445,"lng":-72.72833,"address":"799 Farmington Ave, West Hartford, 06119","phone":"8602333294"},"Master-CM047666":{"lat":41.76956,"lng":-72.97063,"address":"8 Milford St, Burlington, 06013","phone":"8606737155"},"Master-CM309771":{"lat":41.82756,"lng":-72.55568,"address":"1728 Ellington Rd, South Windsor, 06074","phone":"8606441533"},"Master-CM702777":{"lat":41.13839,"lng":-73.42483,"address":"346 Main Ave, Norwalk, 06851","phone":"9176964180"},"Master-CM184636":{"doctor":"Dr. Nghiem","orders":"Vanessa","dealerRep":"Rich Anderson Schein","notes":"Rosa pm","feel":"3.0","lat":41.86711,"lng":-72.80688,"address":"625 Hopmeadow St, Simsbury, 06070","phone":"8606581991"},"Master-CM085451":{"lat":41.15543,"lng":-73.23037,"address":"3085 Fairfield Ave, Bridgeport, 06605","phone":"2033374499"},"Master-CM905640":{"lat":41.83116,"lng":-72.7366,"address":"2 Wintonbury Mall, Bloomfield, 06002"},"Master-CM275291":{"lat":41.81661,"lng":-72.72539,"address":"6 Northwestern Dr, Bloomfield, 06002","phone":"8602426297"},"Master-CM147182":{"dealer":"Schein","lat":41.75904,"lng":-72.73944,"address":"65 Memorial Rd West Hartford","email":"drwu@bluebackdental.com","doctor":"Dr. WU","phone":"8602339300","dealer_rep":"Kevin K Schein"},"Master-CM1766151":{"lat":41.81452,"lng":-72.86435,"address":"22 Dale Rd, Avon, 06001"},"Master-CM098312":{"dealer":"Darby","lat":41.73983,"lng":-70.59835,"address":"9 County Rd Bourne"},"Master-CM090841":{"lat":41.06148,"lng":-73.53407,"address":"44 Strawberry Hill Ave, Stamford, 06902","phone":"2033485612"},"Master-CM109862":{"lat":41.71351,"lng":-72.60556,"address":"141 Hebron Ave, Glastonbury, 06033","phone":"8606335467"},"Master-CM127927":{"notes":"OPP=Simplishade Bulk Fill","lat":41.76332,"lng":-72.74133,"address":"18 N Main St, West Hartford, 06107","phone":"8605613050"},"Master-CM473639":{"lat":41.5422,"lng":-72.96794,"address":"3670 E Main St, Waterbury, 06705","phone":"2037540184"},"Master-CM296950":{"lat":41.54446,"lng":-73.0051,"address":"2247 E Main St, Waterbury, 06705","phone":"2037573486"},"Master-CM109585":{"lat":41.54928,"lng":-73.02567,"address":"495 Union St, Waterbury, 06706","phone":"2035742121"},"Master-CM127024":{"dealer":"Schein","lat":41.76423,"lng":-70.07459,"address":"2187 Main St Brewster"},"Master-CM862244":{"dealer":"Schein","lat":41.42922,"lng":-73.57545,"address":"1620 Route 22 Brewster"},"Master-CM119370":{"lat":41.18262,"lng":-73.25102,"address":"259 Stillson Rd, Fairfield, 06825","phone":"2032550099"},"Master-CM977984":{"lat":41.82735,"lng":-73.10267,"address":"241 Kennedy Dr, Torrington, 06790","phone":"8604960256"},"Master-CM079936":{"lat":41.76514950000001,"lng":-72.5224044,"address":"33 Hartford Ave, Manchester, 06040","phone":"8606492796"},"Master-CM140589":{"dealer":"Schein","lat":41.27726,"lng":-73.12083,"address":"680 Bridgeport Ave Shelton","email":"mangeloni@dentalassociates.us"},"Master-CM1042039":{"lat":41.66572,"lng":-72.60354,"address":"875 Main St, South Glastonbury, 06073","phone":"8606336167"},"Master-CM102523":{"lat":41.66572,"lng":-72.60354,"address":"875 Main St, South Glastonbury, 06073","phone":"8606336167"},"Master-CM1010532":{"lat":41.63943,"lng":-72.60561,"address":"106 E Main St, South Glastonbury, 06073","phone":"8606336167"},"Master-CM1319374":{"lat":41.2117,"lng":-73.21031,"address":"3715 Main St, Bridgeport, 06606","phone":"2035504547"},"Master-CM197126":{"lat":41.17567,"lng":-73.21179,"address":"633 Clinton Ave, Bridgeport, 06605","phone":"2033842261"},"Master-CM190453":{"doctor":"Dr. Cho","dealerRep":"Peter Benco","notes":"Take 1 advance in Bulk looking to swap to our impression.\nalso testing out Maxcem\n\nDr. Cho","feel":"5.0","lat":41.20202,"lng":-73.18647,"address":"161 Boston Ave, Bridgeport, 06610","phone":"2038730598","dealer_rep":"Peter Benco"},"Master-CM880153":{"lat":41.20311,"lng":-73.2041,"address":"2992 Main St, Bridgeport, 06606"},"Master-CM113288":{"lat":41.18046,"lng":-73.21526,"address":"90 Brooklawn Ave, Bridgeport, 06604","phone":"2033344837"},"Master-CM120809":{"dealer":"Schein","lat":41.3621,"lng":-72.08059,"address":"115 Bridge St Groton"},"Master-CM049815":{"dealer":"All Other","lat":41.373,"lng":-73.73543,"address":"947 S Lake Blvd Mahopac"},"Master-CM071581":{"lat":41.66825,"lng":-72.86176,"address":"87 East St, Plainville, 06062","phone":"8607475711"},"Master-CM188254":{"lat":41.7741,"lng":-72.63808,"address":"47 Burnside Ave, East Hartford, 06108","phone":"8608991360"},"Master-CM174546":{"lat":41.81647,"lng":-72.73484,"address":"719 Cottage Grove Rd, Bloomfield, 06002","phone":"8602425005"},"Master-CM1161096":{"lat":41.73299,"lng":-72.5235,"address":"174 Fairway Xing, Glastonbury, 06033"},"Master-CM202074":{"doctor":"JULIA FAIGEL","orders":"Yari","dealerRep":"Freda","notes":"Freda Darby Dealer\nbought emotion\nBruno is doctors assistant and PM","visitNotes":"Sarah front Desk\ndropped off samples for lnl next week","lastVisit":"2024-01-31","feel":"4.0","dealer":"Darby","lat":41.75187,"lng":-72.71523,"address":"18 Kane St, West Hartford, 06119","phone":"8602317000","dealer_rep":"Freda"},"Master-CM051355":{"lat":41.69874,"lng":-72.90072,"address":"1235 Farmington Ave, Bristol, 06010","phone":"8605893529"},"Master-CM927301":{"lat":41.6955,"lng":-72.91041,"address":"1001 Farmington Ave, Bristol, 06010","phone":"7145960100"},"Master-CM485721":{"lat":41.67377,"lng":-72.94114,"address":"33 High St, Bristol, 06010","phone":"8605404220"},"Master-CM493595":{"lat":41.6629,"lng":-72.94891,"address":"160 Wolcott St, Bristol, 06010","phone":"8605898872"},"Master-CM1724010":{"lat":41.85291,"lng":-72.6469,"address":"62 Bloomfield Ave, Bristol, 06010"},"Master-CM133170":{"lat":41.75885,"lng":-72.6869,"address":"778 Broad St, Hartford, 06106","phone":"8605257459"},"Master-CM171096":{"dealer":"All Other","lat":41.03319,"lng":-73.76322,"address":"7-11 S Broadway White Plains"},"Master-CM050066":{"dealer":"Schein","lat":41.6738,"lng":-70.93281,"address":"559 Ashley Blvd New Bedford"},"Master-CM1729293":{"lat":41.18794,"lng":-73.26524,"address":"658 Hollydale Rd, Fairfield, 06824"},"Master-CM129173":{"doctor":"Dr. Warren","dealerRep":"Lyndon-Benco","notes":"Dr. Warren and Daughter Dr. Rachel Warren\nLyndon\n\nRotary 30+30\nOnly use Build it on resto","visitNotes":"went over q4 promos and Kerr Preferred program","lastVisit":"2022-11-08","feel":"3.0","lat":41.19087,"lng":-73.21963,"address":"990 Brooklawn Ave, Bridgeport, 06604","phone":"2033356471","dealer_rep":"Lyndon-Benco"},"Master-CM315018":{"dealer":"Schein","lat":41.35262,"lng":-74.27731,"address":"49 Brookside Ave Chester"},"Master-CM258123":{"dealer":"Schein","lat":42.1282,"lng":-71.00937,"address":"838 S Franklin St Holbrook"},"Master-CM177054":{"dealer":"Patterson","lat":41.94344,"lng":-71.27791,"address":"140 Park St Attleboro"},"Master-CM101631":{"lat":41.81221,"lng":-72.86352,"address":"40 Dale Rd, Avon, 06001","phone":"8606772171"},"Master-CM1159589":{"lat":41.11891,"lng":-73.41209,"address":"12 Main St, Norwalk, 06851","phone":"2039578850"},"Master-CM067467":{"doctor":"Dr. Mcpadden","orders":"Z","dealerRep":"Lyndon-Benco","notes":"30+30 Rotary","feel":"4.0","lat":41.22335,"lng":-73.11624,"address":"4949 Main St, Stratford, 06614","phone":"2033789500"},"Master-CM178386":{"lat":41.82405,"lng":-72.55328,"address":"469 Buckland Rd, South Windsor, 06074","phone":"8606489335"},"Master-CM225445":{"dealerRep":"Paul Waters -Patterson","notes":"1000K Resto- Herculite Ultra /XRV\nCaviWipe Users","visitNotes":"left samples of Simplishade","lastVisit":"2023-01-30","lat":41.80686,"lng":-72.54589,"address":"194 Buckland Hills Dr, Manchester, 06042","phone":"8606440099","dealer_rep":"Paul Waters -Patterson"},"Master-CM051585":{"visitNotes":"left samps:\nSS\nMaxcem \nasked to setup lnl with a","lastVisit":"2024-09-12","dealer":"Patterson","lat":41.7761,"lng":-72.62738,"address":"270 Burnside Ave East Hartford","email":"tooth40@aol.com","doctor":"Dr. Katz","phone":"8602899558","dealer_rep":"Don C - Patterson","notes":"Dr. Katz and Son Dr. Katz \nDon C rep\nTake 1 advanced\nKKP member\nCarmen is fd and scheduler"},"Master-CM127905":{"dealerRep":"Don C - Patterson","notes":"Ivana office manager -","visitNotes":"dropped off maxcem Samps\nQ3 Spiff","lastVisit":"2022-08-03","lat":41.76636,"lng":-72.71183,"address":"576 Farmington Ave, Hartford, 06105","phone":"8602329002","dealer_rep":"Don C - Patterson"},"Master-CM355673":{"lat":41.8474,"lng":-72.56544,"address":"22 Morgan Farms Dr, South Windsor, 06074","phone":"2036447340"},"Master-CM179281":{"dealer":"Darby","lat":41.84781,"lng":-72.56668,"address":"15 Morgan Farms Dr South Windsor","phone":"8606444741","notes":"Dr. Bernstein sold his practice- its Heritage Family Now"},"Master-CM057276":{"lat":41.82686,"lng":-72.49335,"address":"281 Hartford Tpke, Vernon, 06066","phone":"8608752881"},"Master-CM199309":{"dealer":"Patterson","lat":41.16618,"lng":-73.98856,"address":"337 N Main St New City"},"Master-CM1157964":{"lat":41.07957,"lng":-73.55334,"address":"251 Long Ridge Rd, Stamford, 06902","phone":"2033481632"},"Master-CM283624":{"dealer":"Patterson","lat":41.03488,"lng":-73.7647,"address":"445 Hamilton Ave White Plains"},"Master-CM218905":{"lat":41.1796,"lng":-73.24686,"address":"1817 Black Rock Tpke, Fairfield, 06825","phone":"2033334700"},"Master-CM120971":{"dealer":"Benco","lat":41.68861,"lng":-72.85178,"address":"359 Farmington Ave Plainville","doctor":"Dr. Lupini","phone":"8607475761","dealer_rep":"Scott - Benco"},"Master-CM096271":{"dealer":"Benco","lat":41.75012,"lng":-70.601,"address":"258 Main St Buzzards Bay"},"Master-CM159582":{"lat":41.46989,"lng":-73.47224,"address":"87 State Route 39, New Fairfield, 06812","phone":"2037461200"},"Master-CM409945":{"lat":41.4905,"lng":-73.41517,"address":"940 Federal Rd, Brookfield, 06804","phone":"2037755533"},"Master-CM1157905":{"lat":41.46677,"lng":-73.48648,"address":"100 State Route 37, New Fairfield, 06812","phone":"2037462459"},"Master-CM064815":{"dealer":"Schein","lat":40.96829,"lng":-73.8844,"address":"984 N Broadway Yonkers"},"Master-CM105548":{"dealer":"Darby","lat":42.15419,"lng":-71.14619,"address":"608 Washington St Canton"},"Master-CM057003":{"dealer":"Schein","lat":41.66046,"lng":-70.2848,"address":"262 Barnstable Rd Hyannis"},"Master-CM859056":{"dealer":"Schein","lat":41.88723,"lng":-70.91939,"address":"31 W Grove St Middleboro"},"Master-CM092972":{"lat":41.76485,"lng":-72.67395,"address":"1 Financial Plz, Hartford, 06103","phone":"8602475130"},"Master-CM085001":{"dealerRep":"Jeff T - Schein","lat":41.59234,"lng":-73.10879,"address":"1192 Main St, Watertown, 06795","phone":"8602749211","dealer_rep":"Jeff T - Schein"},"Master-CM262135":{"lat":41.52506,"lng":-72.9958,"address":"158 Waterbury Rd, Prospect, 06712","phone":"2037584224"},"Master-CM1056171":{"lat":41.14246,"lng":-73.25517,"address":"1305 Post Rd, Fairfield, 06824"},"Master-CM1744351":{"lat":41.72655,"lng":-72.80111,"address":"11 South Rd, Farmington, 06032"},"Master-CM1736720":{"lat":41.8099,"lng":-72.5228,"address":"376 Tolland Tpke, Manchester, 06042"},"Master-CM1936031":{"notes":"Gabby front desk setup lnl","visitNotes":"setup lnl for 2/21/24","lastVisit":"2024-01-31","feel":"3.0","lat":41.5368698,"lng":-72.7982459,"address":"130 E Main St, Meriden, CT, USA"},"Master-CM091643":{"dealer":"Schein","lat":41.8277,"lng":-71.39246,"address":"183 Waterman St Providence"},"Master-CM2021565":{"dealer":"Schein","lat":41.78701,"lng":-71.40226,"address":"1482 Broad St Providence"},"Master-CM528189":{"lat":41.11342,"lng":-73.41586,"address":"606 West Ave, Norwalk, 06850","phone":"2038471122"},"Master-CM953601":{"lat":41.82822,"lng":-72.73788,"address":"705 Bloomfield Ave, Bloomfield, 06002","phone":"8602860444"},"Master-CM215431":{"lat":41.69675,"lng":-72.72086,"address":"112 Market Sq, Newington, 06111","phone":"8606672600"},"Master-CM132736":{"lat":41.76505,"lng":-72.73155,"address":"836 Farmington Ave, West Hartford, 06119","phone":"8605234239"},"Master-CM054373":{"orders":"vanessa","dealerRep":"Rich Anderson Schein","notes":"Rich Anderson Account\nVanessa is PM\nbought diamonds off me","visitNotes":"Carly Front Desk\n\nleft office Simplicity Kit\ntake 1 bite registration\nQ2 Back pocket promos","lastVisit":"2022-05-04","lat":41.12178,"lng":-73.40792,"address":"37 North Ave, Norwalk, 06851","phone":"2038462085","dealer_rep":"Rich Anderson Schein"},"Master-CM181280":{"lat":41.14246,"lng":-73.25517,"address":"1305 Post Rd, Fairfield, 06824","phone":"2032597709"},"Master-CM048918":{"lat":41.76505,"lng":-72.73155,"address":"836 Farmington Ave, West Hartford, 06119","phone":"8602320033"},"Master-CM124415":{"lat":41.71331,"lng":-72.60125,"address":"300 Hebron Ave, Glastonbury, 06033","phone":"8606592647"},"Master-CM050513":{"notes":"Elise or Meghan\n1 Dr. uses Zenflex\nInterested in Apex Locator\nRich Anderson account\n\nmet with Dr. Ash","visitNotes":"Dr ash testing out Apex ID\nand Traverse office opener","lastVisit":"2022-08-16","feel":"4.0","lat":41.82686,"lng":-72.49335,"address":"281 Hartford Tpke, Vernon, 06066","phone":"8608710337"},"Master-CM953153":{"lat":41.67049,"lng":-72.83175,"address":"440 New Britain Ave, Plainville, 06062","phone":"8608263880"},"Master-CM656183":{"lat":41.76505,"lng":-72.73155,"address":"836 Farmington Ave, West Hartford, 06119","phone":"8609162908"},"Master-CM046079":{"dealer":"Schein","lat":42.19727,"lng":-71.19769,"address":"470 Washington St Norwood"},"Master-CM300119":{"dealer":"Darby","lat":40.96403,"lng":-73.8396,"address":"1915 Central Park Ave Yonkers"},"Master-CM270356":{"lat":41.76185,"lng":-72.74354,"address":"970 Farmington Ave, West Hartford, 06107","phone":"8605614300"},"Master-CM124857":{"dealer":"Patterson","lat":41.22356,"lng":-73.03731,"address":"435 New Haven Ave Milford"},"Master-CM270451":{"lat":41.19529,"lng":-73.23095,"address":"841 Stratfield Rd, Fairfield, 06825","phone":"2033333381"},"Master-CM079048":{"dealer":"Schein","lat":41.01222,"lng":-73.84593,"address":"20 Center St Ardsley"},"Master-CM886653":{"lat":41.7565,"lng":-72.74401,"address":"81 S Main St, West Hartford, 06107","phone":"8602334873"},"Master-CM077455":{"dealer":"Schein","lat":41.35423,"lng":-74.27897,"address":"10 Moffatt Ln Chester"},"Master-CM078811":{"dealer":"Schein","lat":42.09172,"lng":-71.42631,"address":"38 Pond St Franklin","email":"vwallace@chestnutdental.com","doctor":"Dr. Shusterman"},"Master-CM078811 Total":{"doctor":"Dr. Shusterman","orders":"Susan","dealerRep":"Ron O'Shea Schein","notes":"Susan Montgomy is the lead assistant and orderer.  Main location is in Needham and they order thru Ron Oshea Schein","lat":42.09172,"lng":-71.42631,"address":"38 Pond St, Franklin, 02038","phone":"5085206660"},"Master-CM984523":{"dealer":"Schein","lat":40.98779,"lng":-73.6838,"address":"150 Purchase St Rye"},"Master-CM110488":{"dealer":"Patterson","lat":41.74306,"lng":-72.67566,"address":"272 Franklin Ave Hartford","email":"catherinelim99@yahoo.com"},"Master-CM110488 Total":{"orders":"Madi","dealerRep":"Chris O'Donnel Patterson","lat":41.74306,"lng":-72.67566,"address":"272 Franklin Ave, Hartford, 06114","phone":"8602965437"},"Master-CM210304":{"dealer":"Schein","lat":41.50586,"lng":-72.14333,"address":"392 Salem Tpke Bozrah"},"Master-CM168197":{"lat":41.2117,"lng":-73.21031,"address":"3715 Main St, Bridgeport, 06606","phone":"2033749429"},"Master-CM135123":{"dealer":"Benco","lat":42.1116,"lng":-71.07234,"address":"966 Park St Stoughton"},"Master-CM870872":{"lat":41.23013,"lng":-73.15394,"address":"999 Silver Ln, Trumbull, 06611","phone":"2037673798"},"Master-CM916492":{"dealer":"Darby","lat":41.43145,"lng":-71.49172,"address":"24 Salt Pond Rd Wakefield"},"Master-CM674846":{"lat":41.41362,"lng":-73.42986,"address":"79 Sand Pit Rd, Danbury, 06810","phone":"2037905437"},"Master-CM927210":{"lat":41.81661,"lng":-72.72539,"address":"6 Northwestern Dr, Bloomfield, 06002"},"Master-CM049137":{"dealer":"Darby","lat":41.93904,"lng":-71.05297,"address":"606 N Main St Raynham"},"Master-CM895193":{"lat":41.1466,"lng":-73.49359,"address":"76 Elm St, New Canaan, 06840"},"Master-CM110237":{"lat":41.03678,"lng":-73.60379,"address":"40 E Putnam Ave, Cos Cob, 06807","phone":"2038695400"},"Master-CM1089105":{"dealer":"Schein","lat":41.09583,"lng":-73.99974,"address":"25 Smith St Nanuet"},"Master-CM200326":{"lat":41.76507,"lng":-72.72819,"address":"798 Farmington Ave, West Hartford, 06119","phone":"8602331589"},"Master-CM189167":{"dealer":"Benco","lat":41.77361,"lng":-71.45145,"address":"1029 Reservoir Ave Cranston"},"Master-CM494600":{"dealer":"Schein","lat":41.03044,"lng":-73.73963,"address":"230 Westchester Ave West Harrison"},"Master-CM1988033":{"dealer":"Schein","lat":41.75601,"lng":-71.45899,"address":"4000 Chapel View Blvd Cranston"},"Master-CM1394602":{"dealer":"Schein","lat":41.64901,"lng":-72.66595,"address":"175 Capital Blvd Rocky Hill"},"Master-CM971374":{"lat":41.8799,"lng":-72.80183,"address":"927 Hopmeadow St, Westport, 06880","phone":"2032217337"},"Master-CM1202713":{"lat":41.15977,"lng":-73.42121,"address":"761 Main Ave, Norwalk, 06851","phone":"2038452200"},"Master-CM987576":{"lat":41.82217,"lng":-72.55543,"address":"112 Deming St, South Windsor, 06074","phone":"8606440863"},"Master-CM875546":{"dealer":"Darby","lat":41.57491,"lng":-72.32979,"address":"79 Norwich Ave Colchester","email":"barbaraweaver8@msn.com"},"Master-CM875546 Total":{"lat":41.57491,"lng":-72.32979,"address":"79 Norwich Ave, Colchester, 06415"},"Master-CM1342666":{"lat":41.76469,"lng":-72.74268,"address":"41 N Main St, West Hartford, 06107","phone":"8603130448"},"Master-CM495961":{"lat":41.7327,"lng":-72.73552,"address":"1162 New Britain Ave, West Hartford, 06110"},"Master-CM341381":{"lat":41.82324,"lng":-72.55404,"address":"435 Buckland Rd, South Windsor, 06074"},"Master-CM1338002":{"lat":41.76903,"lng":-72.70222,"address":"21 Woodland St, Hartford, 06105","phone":"8605276745"},"Master-CM064428":{"lat":41.67185,"lng":-72.64531,"address":"2049 Silas Deane Hwy, Rocky Hill, 06067","phone":"8606450111"},"Master-CM094786":{"accelLevel":"Platinum","lat":41.78115,"lng":-72.54671,"address":"483 Middle Tpke W, Manchester, 06040","phone":"8606450111"},"Master-CM803603":{"lat":41.7727849,"lng":-72.6986783,"address":"1000 Asylum Ave, New Milford, 06776","phone":"8603502411"},"Master-CM048310":{"lat":41.77287,"lng":-72.53708,"address":"401 Center St, Manchester, 06040","phone":"8606450111"},"Master-CM929524":{"accelLevel":"Platinum","lat":41.99966,"lng":-72.59348,"address":"841 Enfield St, Enfield, 06082","phone":"8602539803"},"Master-CM669979":{"accelLevel":"Platinum","lat":41.57197,"lng":-73.00466,"address":"1141 Wolcott St, Waterbury, 06705","phone":"2034190333"},"Master-CM1774904":{"lat":41.0436205,"lng":-73.5733535,"address":"1336 E Putnam Ave, Rocky Hill, 06067"},"Master-CM492633":{"accelLevel":"Platinum","lat":41.66497,"lng":-72.92084,"address":"169 Middle St, Bristol, 06010","phone":"8606450111"},"Master-CM1606279":{"lat":41.7254,"lng":-72.80555,"address":"483 Middle Tpke W 621 Farmington Ave, Hartford, 06105"},"Master-CM094934":{"dealer":"Schein","lat":41.78115,"lng":-72.54671,"address":"483 Middle Tpke W Manchester"},"Master-CM243948":{"doctor":"Dr. Mohammadi","orders":"Shireen","dealerRep":"Rich F Schein","visitNotes":"Spoke with Shireen about placing 25 NX3 Cements","lastVisit":"2025-01-16","feel":"5.0","accelLevel":"Platinum","lat":41.30107,"lng":-72.93025,"address":"46 Prince St, New Haven, 06519","phone":"2037820111","dealer_rep":"Rich F Schein"},"Master-CM052851":{"lat":41.78062,"lng":-72.54036,"address":"366 Middle Tpke W, Manchester, 06040","phone":"8606450111"},"Master-CM153515":{"dealer":"Schein","lat":41.22947,"lng":-73.04826,"address":"203 Cherry St Milford"},"Master-CM066624":{"orders":"Joanna","dealerRep":"Safco/Scott Benco","notes":"Scott from Benco brought me into this office. They do around 6K a year in Total care.","visitNotes":"stopped in and spoke with Joanna to schedule LNL. Doctor said he is too busy with holidays but will reach out to Schedule  lnl","lastVisit":"2022-11-03","feel":"3.0","lat":41.74179,"lng":-72.71055,"address":"31 William Shorty Campbell St, Hartford, 06106","phone":"8602781600","dealer_rep":"Safco/Scott Benco"},"Master-CM130288":{"lat":41.22375,"lng":-73.21773,"address":"4702 Main St, Bridgeport, 06606","phone":"2033718282"},"Master-CM059938":{"dealerRep":"Lyndon-Benco","notes":"2K on Endo files","lat":41.22348,"lng":-73.2183,"address":"4699 Main St, Bridgeport, 06606","phone":"2033723726","dealer_rep":"Lyndon-Benco"},"Master-CM309165":{"dealer":"Schein","lat":41.93815,"lng":-71.08088,"address":"302 Broadway Raynham"},"Master-CM051306 Total":{"lat":41.60732,"lng":-70.49065,"address":"107 Commercial St, Mashpee, 02649","phone":"5084777090"},"Master-CM051306":{"dealer":"Patterson","lat":41.60732,"lng":-70.49065,"address":"107 Commercial St Mashpee","email":"ahan@chcofcapecod.org","phone":"5084777090"},"Master-CM894440":{"lat":41.71099,"lng":-72.84001,"address":"222 Main St, Farmington, 06032","phone":"8607519209"},"Master-CM170217":{"lat":41.76262,"lng":-72.73998,"address":"928 Farmington Ave, West Hartford, 06107","phone":"8602324606"},"Master-CM051914":{"orders":"Lora","dealerRep":"Ryan M - Patterson","lat":41.06001,"lng":-73.53995,"address":"999 Summer St, Stamford, 06905","phone":"2033593296"},"Master-CM858677":{"dealer":"Schein","lat":41.3112,"lng":-72.91977,"address":"389 Orange St New Haven"},"Master-CM226518":{"dealer":"Patterson","lat":40.95405,"lng":-73.85169,"address":"35 E Grassy Sprain Rd Yonkers"},"Master-CM188851":{"doctor":"Dr. Nanada","orders":"Brie","dealerRep":"Dave R - Benco","notes":"LNL next week","visitNotes":"Office really wants SonicFill, Brenda has final say on ordering","lastVisit":"2024-02-07","lat":41.4675982,"lng":-72.8114866,"address":"850 N Main St, Wallingford, CT, USA","phone":"203-949-1701","dealer_rep":"Dave R - Benco"},"Master-CM334173":{"lat":41.17217,"lng":-73.2291,"address":"501 Kings Hwy E, Fairfield, 06825","phone":"2033672273"},"Master-CM215822":{"dealer":"All Other","lat":41.29689,"lng":-72.95614,"address":"145 Boston Post Rd West Haven","email":"bbrennen@ctdentalonline.com","doctor":"Dr. Singh","phone":"2038890278","notes":"Using Kent Tri State\nBig Seal Tight User"},"Master-CM054881":{"lat":41.21901,"lng":-73.21504,"address":"39 Park Lane Rd, Bridgeport, 06606","phone":"2033724200"},"Master-CM269970":{"lat":41.14246,"lng":-73.25517,"address":"1305 Post Rd, Fairfield, 06824","phone":"2032594700"},"Master-CM077728":{"notes":"at other office on Tuesday\nleft samples:\nZenflex assorted 3 packs\nTraverse Rotary 3 packs","lat":41.81012,"lng":-72.52179,"address":"360 Tolland Tpke, Manchester, 06042","phone":"8606464811"},"Master-CM125366":{"lat":41.54147,"lng":-72.98138,"address":"15 N Broadway, Waterbury, 06708","phone":"2037578919"},"Master-CM185758":{"orders":"Darla","notes":"spend 2000 a year on seal-tight","lat":41.66954,"lng":-72.64284,"address":"2139 Silas Deane Hwy, Rocky Hill, 06067","phone":"8605298444"},"Master-CM836730":{"lat":41.65956,"lng":-72.68184,"address":"88 New Britain Ave, Rocky Hill, 06067","phone":"8605291199"},"Master-CM191297":{"lat":41.75496,"lng":-72.67464,"address":"34 Jerome Ave, Wethersfield, 06109","phone":"8605295394"},"Master-CM173724":{"lat":41.87989,"lng":-72.70544,"address":"1080 Day Hill Rd, Windsor, 06095","phone":"8602850889"},"Master-CM957897":{"lat":41.40691,"lng":-73.44486,"address":"39 Hospital Ave, Danbury, 06810","phone":"2037449700"},"Master-CM276751":{"lat":41.1796,"lng":-73.24686,"address":"1817 Black Rock Tpke, Fairfield, 06825","phone":"2033725566"},"Master-CM079804":{"lat":41.6869,"lng":-72.65523,"address":"1185 Silas Deane Hwy, Wethersfield, 06109","phone":"8605632331"},"Master-CM457584":{"dealer":"Schein","lat":41.63783,"lng":-72.90251,"address":"835 W Queen St Southington","email":"jbicknell@csda.com"},"Master-CM1709432":{"lat":41.606413,"lng":-73.40268879999999,"address":"120 Park Lane Rd, Farmington, 06032"},"Master-CM528072":{"lat":41.83499,"lng":-72.49304,"address":"219 Talcottville Rd, Vernon Rockville, 06066","phone":"8608722004"},"Master-CM606945":{"lat":41.2551753,"lng":-73.2178996,"address":"650 Chase Pkwy, Trumbull, 06611","phone":"2034527081"},"Master-CM111682":{"visitNotes":"spoke with Marixa - dropped off Extravaganza promo and Kerr Accelerate","lastVisit":"2022-11-03","dealer":"Schein","lat":41.73999,"lng":-72.69579,"address":"397 New Britain Ave Hartford","doctor":"Connie Gao","phone":"8602471021","notes":"Mike Nolan Schein - Internal\nOptibond User\n\nDr. Gao Owner - Harford office on Tuesdays"},"Master-CM101168":{"lat":41.71335,"lng":-72.6641,"address":"465 Silas Deane Hwy, Wethersfield, 06109","phone":"8605132190"},"Master-CM144793":{"lat":41.55058,"lng":-73.06628,"address":"1336 W Main St, Waterbury, 06708","phone":"2037544175"},"Master-CM1747924":{"lat":41.81689,"lng":-72.82876,"address":"100 Simsbury Rd, Avon, 06001"},"Master-CM1302092":{"lat":41.75422,"lng":-72.68088,"address":"85 Seymour St, Hartford, 06106","phone":"8605220604"},"Master-CM1719431":{"lat":41.190288,"lng":-73.4280248,"address":"249 Danbury Rd, Glastonbury, 06033"},"Master-CM1716045":{"lat":41.73324,"lng":-72.7434,"address":"433 S Main St, West Hartford, 06110"},"Master-CM077617":{"dealer":"Patterson","lat":41.82849,"lng":-72.48189,"address":"428 Hartford Tpke Vernon","phone":"2034840064"},"Master-CM159206":{"dealer":"Patterson","lat":41.37376,"lng":-72.04713,"address":"643 Gold Star Hwy Groton"},"Master-CM187294":{"lat":41.76505,"lng":-72.73155,"address":"836 Farmington Ave, West Hartford, 06119","phone":"8602368000"},"Master-CM1878115":{"dealer":"Schein","lat":42.01472,"lng":-70.71934,"address":"104 Tremont St Duxbury"},"Master-CM065119":{"lat":41.98849,"lng":-72.55893,"address":"145 Hazard Ave, Enfield, 06082","phone":"8607491909"},"Master-CM726384":{"lat":41.04282,"lng":-73.53174,"address":"880 Canal St, Stamford, 06902","phone":"2035952743"},"Master-CM230303":{"dealer":"Patterson","lat":41.44579,"lng":-74.41955,"address":"27 North St Middletown"},"Master-CM158580":{"dealer":"Schein","lat":41.30141,"lng":-73.88193,"address":"99 Locust Ave Cortlandt Manor"},"Master-CM241059 Total":{"doctor":"Jeffrey Babushkin","orders":"Marie PM Gabby Assistant","dealerRep":"Jay Gannon Patterson","notes":"Sue front desk\nUnora is manager\nDr. Babushkin\n\nBig Optibond User\n80+ Burs a year","visitNotes":"spoke with Gabby dental assistant.  she stated Dr. uses Empress composite on everything. \nLeft all 3 shades of SS","lastVisit":"2023-03-23","lat":41.24459,"lng":-73.196,"address":"888 White Plains Rd, Trumbull, 06611","phone":"2032685881"},"Master-CM109709":{"doctor":"Dr. Miller","dealerRep":"Safco","notes":"Dr. Miller did a CE course on simplicity resto products\nInva front desk young girl odd name","visitNotes":"dropped off Q4 promos, KKP sign up info, care package - Rotary, ProGloss, prophy angles, build it, Herc Ultra flow","lastVisit":"2022-11-08","feel":"3.0","lat":41.14278,"lng":-73.25484,"address":"1275 Post Rd, Fairfield, 06824","phone":"2032556878"},"Master-CM166690":{"dealer":"Benco","lat":41.1823,"lng":-74.05275,"address":"1540 Route 202 Pomona"},"Master-CM236941":{"dealer":"Schein","lat":41.29437,"lng":-73.81976,"address":"2649 Strang Blvd Yorktown Heights"},"Master-CM109470":{"lat":41.78523,"lng":-73.14292,"address":"55 Peck Rd, Torrington, 06790","phone":"8604828588"},"Master-CM190798":{"lat":41.44835,"lng":-73.40382,"address":"300 Federal Rd, Brookfield, 06804","phone":"2037751800"},"Master-CM132632":{"lat":41.69433,"lng":-72.91341,"address":"13 Collins Rd, Bristol, 06010","phone":"8605894577"},"Master-CM168400":{"dealer":"Darby","lat":41.91627,"lng":-70.80284,"address":"70 N Main St Carver"},"Master-CM316976":{"lat":41.11141,"lng":-73.40652,"address":"5 Eversley Ave, Norwalk, 06851","phone":"2038536626"},"Master-CM1617447":{"lat":41.70649,"lng":-72.73586,"address":"435C Willard Ave, Newington, 06111"},"Master-CM1958620":{"lat":41.72293,"lng":-72.58578,"address":"195 Eastern Blvd, Glastonbury, 06033","phone":"8602898219"},"Master-CM081695":{"orders":"Laura","dealerRep":"Don C - Patterson","visitNotes":"dropped off samples of Take 1 high viscosity retraction","lastVisit":"2023-01-11","feel":"5.0","lat":41.63029,"lng":-72.75839,"address":"1105 Farmington Ave, Kensington, 06037","phone":"8608284189","dealer_rep":"Don C - Patterson"},"Master-CM457584 Total":{"lat":41.63781,"lng":-72.90275,"address":"835 W Queen St, Southington, 06489","phone":"8603781800"},"Master-CM914999":{"lat":41.14145,"lng":-73.26099,"address":"1700 Post Road, Fairfield, 06824","phone":"2032543800"},"Master-CM860944":{"lat":41.76505,"lng":-72.73155,"address":"836 Farmington Ave, West Hartford, 06119"},"Master-CM1300114":{"lat":41.76505,"lng":-72.73155,"address":"836 Farmington Ave, West Hartford, 06119","phone":"8602329911"},"Master-CM559765":{"notes":"6 Locations\n\nAnita Lucsky - Office Manager\nhq 203-374-1911\nanita@ctbraces.com \n\nDibi Office Admin\n203-522-1940\ndibi@ctbraces.com","lat":41.21391,"lng":-73.21193,"address":"3909 Main St, Bridgeport, 06606","phone":"2033741911"},"Master-CM1723553":{"lat":41.76647,"lng":-72.7037,"address":"399 Farmington Ave, West Hartford, 06110"},"Master-CM1723437":{"lat":41.72655,"lng":-72.80111,"address":"11 South Rd, Farmington, 06032"},"Master-CM1308742":{"lat":41.71246,"lng":-72.60435,"address":"131 New London Tpke, Glastonbury, 06033","phone":"8604090449"},"Master-CM1723507":{"lat":41.62271,"lng":-72.74511,"address":"755 Worthington St, Hartford, 06106"},"Master-CM1723592":{"lat":41.7573,"lng":-72.67841,"address":"141 South St, Hartford, 06106"},"Master-CM1723460":{"lat":41.72798,"lng":-72.80094,"address":"399 Farmington Ave, Farmington, 06032"},"Master-CM1723471":{"lat":41.76633,"lng":-72.70858,"address":"505 Farmington Ave, East Hartford, 06108","phone":"(860) 837-7250"},"Master-CM1740239":{"lat":41.75422,"lng":-72.68088,"address":"85 Seymour St, Hartford, 06106"},"Master-CM1723261":{"lat":41.71435,"lng":-72.58794,"address":"676 Hebron Ave, Glastonbury, 06033"},"Master-CM1723439":{"lat":41.72039,"lng":-72.58859,"address":"310 Western Blvd, Glastonbury, 06033","phone":"8609724338"},"Master-CM1239248":{"lat":41.72798,"lng":-72.80094,"address":"399 Farmington Ave, Farmington, 06032","phone":"8602840236"},"Master-CM1723530":{"lat":41.72508,"lng":-72.80623,"address":"505 Farmington Ave, Farmington, 06032"},"Master-CM1244420":{"lat":41.1504193,"lng":-73.2432702,"address":"1579 Straits Tpke, Fairfield, 06824"},"Master-CM1723489":{"lat":41.76505,"lng":-72.72845,"address":"800 Connecticut Blvd, Farmington, 06032"},"Master-CM1723585":{"lat":41.98674,"lng":-72.54252,"address":"276 Hazard Ave, Hartford, 06106"},"Master-CM1723598":{"lat":41.7544767,"lng":-72.6820975,"address":"85 Seymour St, Farmington, 06032"},"Master-CM934805":{"lat":41.3907,"lng":-73.44592,"address":"10 Garrett Pl, Danbury, 06810"},"Master-CM215822 Total":{"doctor":"Dr. Singh","orders":"Paula","dealerRep":"Kent- Tri State","notes":"practice was bought out by Dr. Singh, they have 175K kkp points","visitNotes":"met with Paula-\nsamps:\nSS\nOBU & Solo\nHerc Ultra Flow\nChroma \nRMGI","lastVisit":"2023-02-16","lat":41.29689,"lng":-72.95614,"address":"145 Boston Post Rd, West Haven, 06516","phone":"2038890278"},"Master-CM255889":{"lat":41.87989,"lng":-72.70544,"address":"1080 Day Hill Rd, Windsor, 06095","phone":"8606830244"},"Master-CM172008":{"orders":"Nicole","dealerRep":"Jay Gannon Patterson","lat":41.7689,"lng":-72.52041,"address":"945 Main St, Manchester, 06040","phone":"8606461704","dealer_rep":"Jay Gannon Patterson"},"Master-CM1476780":{"lat":41.20414,"lng":-73.20547,"address":"3101 Main St, Bridgeport, 06606"},"Master-CM1160338":{"lat":41.1806,"lng":-73.24825,"address":"1918 Black Rock Tpke, Fairfield, 06825","phone":"2035838400"},"Master-CM185897":{"lat":41.85947,"lng":-72.81094,"address":"507 Hopmeadow St, Simsbury, 06070","phone":"8606580446"},"Master-CM072143":{"lat":41.67249,"lng":-72.861,"address":"20 Pine St, Plainville, 06062","phone":"8607472703"},"Master-CM093551":{"notes":"Melissa front desk\n3 locations this being main location","visitNotes":"spoke with Melissa front desk, went over Kerr Accelerate,  Extravaganza and Kerr Preferred","lastVisit":"2022-11-03","feel":"3.0","lat":41.78498,"lng":-72.74701,"address":"345 N Main St, West Hartford, 06117","phone":"8605234213"},"Master-CM118940":{"dealer":"Benco","lat":41.73791,"lng":-72.18081,"address":"6 Airport Rd North Windham"},"Master-CM252258":{"lat":41.14464,"lng":-73.25092,"address":"111 Beach Rd, Fairfield, 06824","phone":"2032540545"},"Master-CM238942":{"lat":41.92947,"lng":-72.60526,"address":"122 Prospect Hill Rd, East Windsor, 06088","phone":"8606276875"},"Master-CM076890":{"lat":41.22348,"lng":-73.2183,"address":"4699 Main St, Bridgeport, 06606","phone":"2033724296"},"Master-CM107772":{"lat":41.78346,"lng":-72.70073,"address":"1453 Albany Ave, Hartford, 06112","phone":"8607278146"},"Master-CM954859":{"dealer":"Schein","lat":41.3447,"lng":-72.98289,"address":"1 Bradley Rd Woodbridge","phone":"2035624143"},"Master-CM1050347":{"lat":41.69021,"lng":-72.92551,"address":"529 Farmington Ave, Bristol, 06010","phone":"2163942682"},"Master-CM055988":{"doctor":"Dr. Tseng","orders":"Hannah","dealerRep":"Ryan M - Patterson","notes":"big SS user\nget reorder\nDr. Tseng should be ready for order\n\nAnnie is Assistant across hall\nuses Ryan from Patterson\n\nStill buying SS\nScotchbond $164 vs OBU $72.95","lat":41.40647,"lng":-73.45639,"address":"57 North St, Danbury, 06810","phone":"2037923316"},"Master-CM054030":{"lat":41.39714,"lng":-73.46573,"address":"171 Grandview Ave, Danbury, 06810","phone":"2037783384"},"Master-CM330155":{"lat":41.41397,"lng":-73.43262,"address":"69 Sand Pit Rd, Danbury, 06810","phone":"2037912020"},"Master-CM096784":{"dealer":"Schein","lat":41.38972,"lng":-73.44869,"address":"70 Main St Danbury"},"Master-CM621133":{"lat":41.52114,"lng":-73.42213,"address":"487 Danbury Rd, New Milford, 06776","phone":"8603554146"},"Master-CM251118":{"lat":41.40655,"lng":-73.41801,"address":"72 Newtown Rd, Danbury, 06810","phone":"2037786700"},"Master-CM907345":{"lat":41.1768364,"lng":-73.224723,"address":"71 Tunxis Hill Rd, Sleepy Hollow, 10591"},"Master-CM094122":{"orders":"Jessica","dealerRep":"Steve D  Patterson","notes":"Jessica PM\nSteve D Patterson\ndpdentistry@yahoo.com\n\nMet with Dr. Kevin\nLeft Kerr care package on Resto\n\nBret Pantera \nCell - 661-330-6158","visitNotes":"Q2 promos\nKTC Samps- Prophy, Barriers, Bibeze\nMaxcem Chroma","lastVisit":"2023-01-19","lat":41.39357,"lng":-72.89658,"address":"2675 Whitney Ave, Hamden, 06518","phone":"2032880951","dealer_rep":"Steve D  Patterson"},"Master-CM355804":{"dealer":"Patterson","lat":41.99406,"lng":-70.84404,"address":"284 Monponsett St Halifax"},"Master-CM241213":{"dealer":"Patterson","lat":42.16331,"lng":-71.36744,"address":"1100 Main St Millis"},"Master-CM895296":{"lat":41.18473,"lng":-73.21826,"address":"440 Brooklawn Ave, Bridgeport, 06604","phone":"2035761918"},"Master-CM146344":{"dealer":"Patterson","lat":41.01541,"lng":-73.86816,"address":"18 Ashford Ave Dobbs Ferry"},"Master-CM197274":{"lat":41.84437,"lng":-72.55904,"address":"1050 Sullivan Ave, South Windsor, 06074","phone":"8606442476"},"Master-CM1994858":{"dealer":"Schein","lat":42.03027,"lng":-71.228,"address":"200 Chauncy St Mansfield"},"Master-CM070883":{"lat":41.1099,"lng":-73.40967,"address":"148 East Ave, Norwalk, 06851","phone":"2038664532"},"Master-CM286633":{"lat":41.85911,"lng":-72.35319,"address":"12 Goose Ln, Tolland, 06084","phone":"8608756269"},"Master-CM1716082":{"lat":41.74193,"lng":-72.63299,"address":"281 Main St, East Hartford, 06118"},"Master-CM085919":{"dealer":"Patterson","lat":41.72498,"lng":-71.47875,"address":"400 Bald Hill Rd Warwick"},"Master-CM201313":{"lat":41.07454,"lng":-73.4702,"address":"36 Old Kings Hwy S, Darien, 06820","phone":"2036550667"},"Master-CM138482":{"lat":41.09006,"lng":-73.45604,"address":"110 Post Rd, Darien, 06820","phone":"2036554404"},"Master-CM134159":{"lat":41.08011,"lng":-73.467,"address":"722 Post Rd, Darien, 06820","phone":"2036560404"},"Master-CM2015500":{"dealer":"Schein","lat":41.07946,"lng":-73.46769,"address":"772 Post Rd Darien"},"Master-CM1840705":{"dealer":"Schein","lat":41.11097,"lng":-74.09426,"address":"382A Route 59 Airmont"},"Master-CM431215":{"lat":41.34519,"lng":-72.92403,"address":"105 Leeder Hill Dr, Hamden, 06517","phone":"2032871106"},"Master-CM048581":{"dealer":"All Other","lat":41.6394,"lng":-70.99111,"address":"343 State Rd North Dartmouth"},"Master-CM591222":{"dealer":"Patterson","lat":41.07864,"lng":-73.46832,"address":"800 Post Rd Darien","phone":"2036568079"},"Master-CM103479":{"notes":"spends $1000 a year Harmonize\nCW user\nRyan Patterson","lat":41.05949,"lng":-73.54413,"address":"1450 Washington Blvd, Stamford, 06902","phone":"2033232525"},"Master-CM048575":{"lat":41.66827,"lng":-72.86119,"address":"92 East St, Plainville, 06062","phone":"8607471004"},"Master-CM269039":{"lat":41.76505,"lng":-72.73155,"address":"836 Farmington Ave, Glastonbury, 06033","phone":"8606336161"},"Master-CM867878":{"lat":41.03242,"lng":-73.56807,"address":"182 Sound Beach Ave, Old Greenwich, 06870","phone":"2037421645"},"Master-CM082595":{"lat":41.04747,"lng":-73.56081,"address":"15 Commerce Rd, Stamford, 06902","phone":"2039657795"},"Master-CM211302":{"lat":41.14464,"lng":-73.25092,"address":"111 Beach Rd, Fairfield, 06824","phone":"2032554001"},"Master-CM283000":{"lat":41.06579,"lng":-73.53385,"address":"1 Strawberry Hill Ct, Stamford, 06902","phone":"2033231186"},"Master-CM114845":{"lat":41.76539,"lng":-72.72454,"address":"758 Farmington Ave, West Hartford, 06119","phone":"8602363271"},"Master-CM1040637":{"lat":41.7675,"lng":-73.08608,"address":"300 Litchfield Rd, Harwinton, 06791","phone":"8604851167"},"Master-CM129336":{"dealer":"Schein","lat":41.48597,"lng":-72.82328,"address":"329 Main St Yalesville"},"Master-CM107241":{"lat":41.07776,"lng":-73.53421,"address":"526 Newfield Ave, Stamford, 06905","phone":"2033593738"},"Master-CM080187":{"lat":41.07558,"lng":-73.46984,"address":"24 Old Kings Hwy S, Darien, 06820","phone":"2036554007"},"Master-CM080549":{"notes":"John is the one who does all the ordering\n\nBig Maxcem Elite Chroma User\n\nLeft samples of SS and OBU360\nfollow up on these products","dealer":"Schein","lat":41.3962,"lng":-72.85641,"address":"127 Washington Ave North Haven"},"Master-CM081475":{"lat":41.59886,"lng":-73.40501,"address":"15 Old Park Lane Rd, New Milford, 06776","phone":"8603543632"},"Master-CM903064":{"lat":41.79463,"lng":-72.52448,"address":"150 N Main St, Manchester, 06042","phone":"8606468117"},"Master-CM189083":{"notes":"400+ KKP points","lat":41.76836,"lng":-72.96245,"address":"9 Covey Rd, Burlington, 06013","phone":"8606739141"},"Master-CM148223":{"orders":"Zaira","dealerRep":"Rich F Schein","lat":41.1099,"lng":-73.40967,"address":"148 East Ave, Norwalk, 06851","phone":"2038660415","dealer_rep":"Rich F Schein"},"Master-CM132772":{"dealer":"Darby","lat":41.75156,"lng":-71.12246,"address":"4144 N Main St Fall River"},"Master-CM803729":{"lat":41.98849,"lng":-72.55893,"address":"145 Hazard Ave, Enfield, 06082","phone":"8607491909"},"Master-CM244629":{"lat":41.14718,"lng":-73.49706,"address":"33 Seminary St, New Canaan, 06840","phone":"2039662323"},"Master-CM1077980":{"lat":41.37236,"lng":-73.41174,"address":"3 School St, Bethel, 06801","phone":"2037441646"},"Master-CM058305":{"dealerRep":"Safco","notes":"bought maxcem and SS\n\nget feedback see if she needs more abs if she's ready for OBU","feel":"4.0","lat":41.49311,"lng":-73.05571,"address":"207 Meadow St, Naugatuck, 06770","phone":"2037299248"},"Master-CM188067 Total":{"doctor":"Dr. Chew, Dr. Farber","orders":"Lexi","dealerRep":"Jay Gannon Patterson","visitNotes":"left Q4 promos also left KKP sign up info as they are not currently signed up","lastVisit":"2022-11-16","lat":41.87972,"lng":-72.70347,"address":"1060 Day Hill Rd, Windsor, 06095","phone":"8606885595"},"Master-CM188067":{"dealer":"Patterson","lat":41.87969,"lng":-72.70312,"address":"1060 Day Hill Rd Windsor","email":"drgreg67@sbcglobal.net","doctor":"Dr. Chew, Dr. Farber","phone":"8606885595","dealer_rep":"Jay Gannon Patterson"},"Master-CM1733174":{"dealer":"Schein","lat":41.33838,"lng":-73.78442,"address":"2985 Navajo Rd Yorktown Heights"},"Master-CM275181":{"lat":41.15977,"lng":-73.42121,"address":"761 Main Ave, Norwalk, 06851"},"Master-CM109863":{"lat":41.03152,"lng":-73.63301,"address":"90 Dearfield Dr, Greenwich, 06831","phone":"2037171717"},"Master-CM896176":{"dealer":"Patterson","lat":42.24756,"lng":-71.17412,"address":"395 Washington St Dedham"},"Master-CM896176 Total":{"lat":42.24756,"lng":-71.17412,"address":"395 Washington St, Dedham, 02026"},"Master-CM059703":{"lat":41.21666,"lng":-73.214,"address":"4131 Main St, Bridgeport, 06606","phone":"2033721220"},"Master-CM591791 Total":{"lat":42.32289,"lng":-72.6462,"address":"264 Elm St, Northampton, 01060","phone":"4135842920"},"Master-CM60437 Total":{"lat":41.13984,"lng":-73.25827,"address":"69 Sherman St, Fairfield, 06824","phone":"203-255-1545"},"Master-CM1374737":{"lat":41.66954,"lng":-72.64284,"address":"2139 Silas Deane Hwy, Rocky Hill, 06067"},"Master-CM1355751":{"lat":41.66954,"lng":-72.64284,"address":"2139 Silas Deane Hwy, Rocky Hill, 06067","phone":"8602848066"},"Master-CM051085":{"dealer":"All Other","lat":41.62221,"lng":-70.48889,"address":"96 Old Barnstable Rd Mashpee","email":"garygalovic@gmail.com"},"Master-CM154852":{"dealer":"Benco","lat":41.34744,"lng":-72.04466,"address":"1100 Poquonnock Rd Groton"},"Master-CM1461386":{"notes":"CRM Lead - high volume","lat":41.11409,"lng":-73.4082,"address":"120 East Ave, Norwalk, 06851"},"Master-CM685692":{"lat":41.11039,"lng":-73.42304,"address":"30 Stevens St, Norwalk, 06850","phone":"2038523454"},"Master-CM231113 Total":{"lat":41.3731,"lng":-72.16289,"address":"112 Cross Rd, Waterford, 06385","phone":"8604471787"},"Master-CM1812756":{"dealer":"All Other","lat":41.40207,"lng":-73.63643,"address":"2435 US-6 SUITE:7 Brewster"},"Master-CM1572938":{"lat":41.05359,"lng":-73.5426,"address":"1015 Washington Blvd, Stamford, 06901"},"Master-CM1588280":{"lat":41.0467,"lng":-73.52221,"address":"50 Park St, Stamford, 06902"},"Master-CM091034":{"dealer":"Patterson","lat":41.60143,"lng":-72.69126,"address":"75 Berlin Rd Cromwell"},"Master-CM195427":{"dealer":"Darby","lat":42.24119,"lng":-71.20958,"address":"100 High St Westwood","email":"daniel.kazachkov@gmail.com"},"Master-CM195427 Total":{"lat":42.24119,"lng":-71.20958,"address":"100 High St, Westwood, 02090","phone":"7817339378"},"Master-CM382308":{"lat":41.22816,"lng":-73.23226,"address":"4154 Madison Ave, Trumbull, 06611","phone":"2033740000"},"Master-CM154125":{"orders":"Jayleen","dealerRep":"Rich F Schein","notes":"Left Elements ic for Dr. Ghomi to try\nneed to follow up and pick up demo","lat":41.41564,"lng":-73.46126,"address":"36 Padanaram Rd, Danbury, 06811","phone":"2037485717","email":"mherbstman@aol.com"},"Master-CM140589 Total":{"lat":41.27726,"lng":-73.12083,"address":"680 Bridgeport Ave, Shelton, 06484","phone":"2033800660"},"Master-CM154125 Total":{"lat":41.41564,"lng":-73.46126,"address":"36 Padanaram Rd, Danbury, 06811","phone":"2037485717"},"Master-CM099989":{"dealerRep":"Rich F Schein","dealer":"Schein","lat":41.41636,"lng":-73.46102,"address":"19 Padanaram Rd Danbury","phone":"2037488055"},"Master-CM080734":{"doctor":"Dr. Peck","dealerRep":"Rich F Schein","lat":41.58052,"lng":-73.41284,"address":"1 Aspetuck Ave, New Milford, 06776","phone":"8603554137"},"Master-CM086771":{"lat":41.73435,"lng":-72.79626,"address":"291 Farmington Ave, Farmington, 06032","phone":"8606778666"},"Master-CM1237704":{"lat":41.58486,"lng":-73.04012,"address":"558 Chase Ave, Waterbury, 06704","phone":"2037569900"},"Master-CM171763":{"dealer":"Schein","lat":41.18346,"lng":-73.25569,"address":"2397 Black Rock Tpke Fairfield","phone":"2033728961","notes":"TF Adaptive Files\n\nPart of Dental Associates in Danbury"},"Master-CM1455904":{"lat":41.84859,"lng":-72.81265,"address":"381 Hopmeadow St, Weatogue, 06089"},"Master-CM193241":{"lat":41.86374,"lng":-72.43344,"address":"50 Hale St, Vernon Rockville, 06066","phone":"8608720794"},"Master-CM112536 Total":{"orders":"Lisa Hall","visitNotes":"met with front desk\nsamps:\nHarmonize\nCavi 2.0\nCavi HP\nTray Covers\nstated they would have Lisa call me to schedule something","lastVisit":"2023-03-20","lat":42.13256,"lng":-71.26154,"address":"1428 Main St, Walpole, 02081","phone":"5086688008"},"Master-CM1714247":{"lat":41.7421725,"lng":-72.85802799999999,"address":"450 Mamaroneck Ave, Farmington, 06032"},"Master-CM303112":{"lat":41.27791,"lng":-72.9427,"address":"98 Elm St, West Haven, 06516","phone":"2039336974"},"Master-CM160059 Total":{"orders":"Dr. DeFilippo","dealerRep":"Darby/ Jeff T Schein","visitNotes":"gave Dr. D Q4 promos. Needs a Demi light.\nalso gave him bag of seal-tight tips for one of his chairs that's giving him a hard time","lastVisit":"2022-11-16","feel":"4.0","lat":41.7085,"lng":-72.66101,"address":"20-30 Beaver Rd, Wethersfield, 06109","phone":"8607217428"},"Master-CM1988041":{"dealer":"Schein","lat":41.83134,"lng":-72.49376,"address":"148 Talcottville Rd Alesia N Burge Vernon"},"Master-CM2031730":{"dealer":"Schein","lat":41.58052,"lng":-73.41284,"address":"1 Aspetuck Ave New Milford"},"Master-CM1750657":{"dealer":"Schein","lat":41.41402,"lng":-73.29956,"address":"32 Church Hill Rd Newtown"},"Master-CM106751":{"lat":41.06291,"lng":-73.54276,"address":"1500 Summer St, Stamford, 06905","phone":"2033246171"},"Master-CM229861":{"dealer":"Patterson","lat":41.06291,"lng":-73.54276,"address":"1500 Summer St Stamford"},"Master-CM1894479 Total":{"lat":41.0630365,"lng":-73.5427198,"address":"3rd Floor 1500 Summer Street, Stamford, 06905"},"Master-CM122852":{"doctor":"Dr. Simon","orders":"Jackie","dealerRep":"Paul Waters -Patterson","lat":41.06291,"lng":-73.54276,"address":"1500 Summer St, Stamford, 06905","phone":"2033246171","dealer_rep":"Paul Waters -Patterson"},"Master-CM1892884":{"dealer":"Patterson","lat":41.05335,"lng":-73.541,"address":"2nd Floor 1500 Summer Street Stamford"},"Master-CM875587":{"dealer":"Benco","lat":41.32606,"lng":-74.1877,"address":"20 Millpond Pkwy Monroe"},"Master-CM090032":{"lat":41.68938,"lng":-72.7059,"address":"2304 Berlin Tpke, Newington, 06111","phone":"8606661000"},"Master-CM896130":{"lat":41.67876,"lng":-73.02299,"address":"359 E Main St, Terryville, 06786"},"Master-CM147007":{"dealer":"Schein","lat":41.13614,"lng":-73.36975,"address":"175 Post Rd W Westport","phone":"2032278700"},"Master-CM124487":{"lat":41.75178,"lng":-72.74454,"address":"155 S Main St, West Hartford, 06107","phone":"8602365455"},"Master-CM065653":{"dealer":"Schein","lat":41.46781,"lng":-74.38558,"address":"350 Silver Lake Scotchtown Rd Middletown"},"Master-CM125380":{"dealer":"Patterson","lat":41.52916,"lng":-72.79673,"address":"298 Broad St Meriden","email":"ellen.drazner@dentalgroupct.com"},"Master-CM125380 Total":{"lat":41.52916,"lng":-72.79673,"address":"298 Broad St, Meriden, 06450","phone":"2032355588"},"Master-CM293159":{"doctor":"Dr. Friedman","orders":"Lauren","dealerRep":"Paul Waters -Patterson","notes":"Rhonda retired\nJessica does ordering now\nDr. Goldstein retired\nDr. Friedman is still active","lat":41.59135,"lng":-72.9894,"address":"464 Wolcott Rd, Wolcott, 06716","phone":"2038794649","dealer_rep":"Paul Waters -Patterson"},"Master-CM163518":{"lat":41.59135,"lng":-72.9894,"address":"464 Wolcott Rd, Wolcott, 06716","phone":"2038794649"},"Master-CM251911":{"lat":41.65616,"lng":-72.91485,"address":"524 Middle St, Bristol, 06010","phone":"8605897595"},"Master-CM049128":{"lat":41.71246,"lng":-72.60435,"address":"131 New London Tpke, Glastonbury, 06033","phone":"8606330486","notes":"Dr. David Sobanski\nConvreted from 3M Products\n\nHarmonize\nHerculite Ultra Flow\nMaxcem Elite Chroma\nSimplishade\nCavi\nask why he's not using Optibond"},"Master-CM190381":{"lat":41.88687,"lng":-72.81203,"address":"10 Kerr Farm Rd, Vernon, 06066","phone":"8608753349"},"Master-CM194944":{"lat":41.11114,"lng":-73.40746,"address":"149-153 East Ave, Norwalk, 06851","phone":"2038384191"},"Master-CM1475120":{"dealer":"All Other","lat":41.04312,"lng":-73.95453,"address":"99 Dutch Hill Rd Orangeburg"},"Master-CM1453585 Total":{"lat":42.14759,"lng":-70.84572,"address":"1810 Washington St, Hanover, 02339"},"Master-CM1453585":{"dealer":"Patterson","lat":42.14794,"lng":-70.84577,"address":"1810 Washington St Hanover"},"Master-CM1997468":{"dealer":"Schein","lat":40.89448,"lng":-73.82096,"address":"15 Canal Rd Pelham"},"Master-CM082366":{"dealer":"Patterson","lat":41.02805,"lng":-73.62961,"address":"4 Dearfield Dr Greenwich","phone":"2036299009"},"Master-CM286119":{"lat":41.56019,"lng":-73.06088,"address":"134 Grandview Ave, Waterbury, 06708"},"Master-CM297887":{"lat":41.5357,"lng":-73.0979,"address":"5 Brook St, Middlebury, 06762"},"Master-CM1081897":{"dealer":"All Other","lat":41.3677,"lng":-73.2711,"address":"274 S Main St Newtown"},"Master-CM192031":{"lat":41.3872,"lng":-73.49039,"address":"1 Mill Plain Rd, Danbury, 06811","phone":"2037439001"},"Master-CM399345":{"dealer":"Schein","lat":42.12081,"lng":-71.17754,"address":"76 Pond St Sharon"},"Master-CM1763742":{"lat":41.66856,"lng":-72.59298,"address":"17 Pasture Ln, South Glastonbury, 06073"},"Master-CM139040":{"lat":41.76477,"lng":-72.7302,"address":"820 Farmington Ave, West Hartford, 06119","phone":"8602323211"},"Master-CM1250304":{"doctor":"Dr. Virmani","dealerRep":"Lyndon-Benco","visitNotes":"Met with Dr. Virami, he is going to sign up for Kerr Accelerate - going to order - SS, NX3, Build It","lastVisit":"2023-02-09","feel":"5.0","lat":41.5532,"lng":-73.05913,"address":"146 Highland Ave, Waterbury, 06708","phone":"2037557748"},"Master-CM1756263":{"lat":41.71235,"lng":-72.59876,"address":"39 Sycamore St, Glastonbury, 06033"},"Master-CM220480":{"lat":41.06051,"lng":-73.54034,"address":"1055 Summer St, Stamford, 06905","phone":"2033252102"},"Master-CM263071":{"dealer":"All Other","lat":41.1392,"lng":-73.35786,"address":"29 Imperial Ave Westport","phone":"2032221444"},"Master-CM2050418":{"dealer":"All Other","lat":41.28871,"lng":-73.49547,"address":"80 Grove St Ridgefield"},"Master-CM189881":{"lat":41.13973,"lng":-73.25864,"address":"21 Sherman Ct, Fairfield, 06824","phone":"2032550108"},"Master-CM1086508 Total":{"lat":42.0077167,"lng":-71.5047902,"address":"4th Fl 25 John A Cummings Way, Woonsocket, 02895","phone":"4017674161"},"Master-CM1056724":{"lat":41.18269,"lng":-73.20587,"address":"594 Pequonnock St, Bridgeport, 06604","phone":"2033364444"},"Master-CM728688":{"orders":"Josmara","lat":41.76594,"lng":-72.57157,"address":"240 Spencer St, Manchester, 06040","phone":"8606458000"},"Master-CM939811":{"lat":41.7649,"lng":-72.731415,"address":"105 Technology Dr, West Hartford, 06119"},"Master-CM265015":{"dealer":"Benco","lat":41.45695,"lng":-74.39453,"address":"4 Neeley St Middletown"},"Master-CM116462":{"lat":41.68706,"lng":-72.65501,"address":"1160 Silas Deane Hwy, Wethersfield, 06109","phone":"8605292000"},"Master-CM071176":{"dealer":"Schein","lat":41.43346,"lng":-74.42198,"address":"75 Dolson Ave Middletown"},"Master-CM146991":{"dealer":"Schein","lat":41.26102,"lng":-73.09622,"address":"839 River Rd Shelton"},"Master-CM180713":{"dealer":"Patterson","lat":41.78767,"lng":-72.52448,"address":"174 Main St Manchester"},"Master-CM594377":{"doctor":"Dr. Dong","orders":"Dee or Detra","dealerRep":"Ryan M - Patterson","feel":"4.0","lat":41.75795,"lng":-72.52107,"address":"174 S Main St, Manchester, 06040","phone":"5708257689","dealer_rep":"Ryan M - Patterson"},"Master-CM225079":{"lat":41.7159,"lng":-72.66535,"address":"383 Silas Deane Hwy, Wethersfield, 06109","phone":"8605294545"},"Master-CM083867":{"accelLevel":"Platinum","lat":41.76564,"lng":-72.71392,"address":"621 Farmington Ave, Hartford, 06105","phone":"2036712948"},"Master-CM090245":{"notes":"Resto - OB Extra - $1500\nTotal Care - $1700","visitNotes":"dropped off Q1 promos","lastVisit":"2023-01-24","lat":42.08548,"lng":-72.55514,"address":"624 Belmont ave, Springfield, Ma","phone":"4137377912"},"Master-CM1198242":{"lat":41.56286,"lng":-73.01084,"address":"767 Wolcott Street, Waterbury, 06705","phone":"2037535041"},"Master-CM858695":{"dealer":"Schein","lat":41.22849,"lng":-73.2321,"address":"4154 Madison Ave Trumbull"},"Master-CM048325":{"lat":41.84859,"lng":-72.81265,"address":"381 Hopmeadow St, Weatogue, 06089","phone":"8606514915"},"Master-CM170184":{"dealer":"Darby","lat":41.36116,"lng":-72.63434,"address":"515 Old Toll Rd Madison"},"Master-CM262372":{"dealer":"Benco","lat":41.17842,"lng":-73.1894,"address":"1023 Main St Bridgeport","doctor":"Dr. Aminov","phone":"2033670400","dealer_rep":"Dave R - Benco","notes":"huge rotary order 65+65","feel":"4"},"Master-CM527711":{"dealer":"Schein","lat":41.28876,"lng":-72.60321,"address":"149 Durham Rd Madison"},"Master-CM893482":{"lat":41.78115,"lng":-72.54671,"address":"483 Middle Tpke W, Manchester, 06040","phone":"8606491933"},"Master-CM110200":{"dealer":"All Other","lat":41.19916,"lng":-73.71929,"address":"105 S Bedford Rd Mount Kisco"},"Master-CM858971":{"dealer":"Schein","lat":41.48017,"lng":-72.80697,"address":"850 N Main Street Ext Wallingford"},"Master-CM146245":{"lat":41.09545,"lng":-73.51897,"address":"1081 Hope St, Stamford, 06907","phone":"2033298444"},"PTK-78B09573C8DB1EF35F0D17ED64F7CBC6-8DF1DB6EDB3696369373AB66B4DF2D35":{"dealer":"Patterson","lat":42.12172,"lng":-71.17864,"address":"47 Pond Street Unit 3  Sharon"},"Master-CM267414":{"lat":41.05702,"lng":-73.5296,"address":"50 Glenbrook Rd, Stamford, 06902","phone":"2035690880"},"Master-CM052253":{"dealer":"All Other","lat":40.91496,"lng":-73.87416,"address":"348 Wendover Rd Yonkers"},"Master-CM1071999":{"lat":41.62862,"lng":-72.74576,"address":"140 Webster Square Rd, Berlin, 06037","phone":"8608292849"},"Master-CM225336":{"lat":41.76666,"lng":-72.67649,"address":"185 Asylum St, Hartford, 06103","phone":"8602756490"},"Master-CM210730":{"lat":41.66493,"lng":-72.79239,"address":"33 Lexington St, New Britain, 06052","phone":"8608266598"},"Master-CM195782":{"dealer":"Patterson","lat":40.05787,"lng":-82.38451,"address":"51 Mill St Hanover","email":"bbrodil@aol.com"},"Master-CM870743":{"lat":41.41337,"lng":-73.40797,"address":"105A Newtown Rd, Danbury, 06810","phone":"2037447377"},"Master-CM858758":{"dealer":"Schein","lat":41.55112,"lng":-72.65083,"address":"195 S Main St Middletown"},"Master-CM376783":{"dealer":"Schein","lat":42.15987,"lng":-70.8598,"address":"382 Washington St Norwell"},"Master-CM873880":{"dealer":"Schein","lat":41.77146,"lng":-72.64285,"address":"1011 Main St East Hartford","doctor":"Dr. Kwon","phone":"2036553387","dealer_rep":"Diane Warner Schein","notes":"Dr. Kwon - Owner\nCell -860-528-3350","feel":"4"},"Master-CM894954 Total":{"doctor":"Dr. Tawk","orders":"Mary","dealerRep":"Benco","notes":"42 North Account\n\ncurrently using Cavicide, Caviwipes, OBU","visitNotes":"samples left:\nSS\nChroma\nNexus RMGI\nHerc Flow\nVionexus no rinse","lastVisit":"2023-02-16","lat":41.55795,"lng":-73.06245,"address":"160 Robbins St, Waterbury, 06708","phone":"2037578855"},"Master-CM314123 Total":{"lat":41.73569,"lng":-72.79511,"address":"263 Farmington Ave W, Farmington, 06030","phone":"8606793357"},"Master-CM876133":{"lat":41.12178,"lng":-73.40792,"address":"37 North Ave, Norwalk, 06851","phone":"2038462085"},"Master-CM1367424":{"orders":"Darla","lat":41.66954,"lng":-72.64284,"address":"2139 Silas Deane Hwy, Rocky Hill, 06067","phone":"8605290624"},"Master-CM717412":{"dealer":"Schein","lat":41.84315,"lng":-71.87638,"address":"24 Putnam Pike Dayville"},"Master-CM225025":{"lat":41.09006,"lng":-73.45604,"address":"110 Post Rd, Darien, 06820","phone":"2036554404"},"Master-CM270199":{"lat":41.75874,"lng":-72.8876,"address":"36 Main St, Unionville, 06085","phone":"8606739770"},"Master-CM380336":{"notes":"Chastity Marrero - Manager\nJohn Richardson - Main Guy","visitNotes":"Met with Chasity.  Gave samples of SS and OBU360. LNL set for mid October","lastVisit":"2025-10-10","lat":41.56111,"lng":-73.05388,"address":"155 Thomaston Ave, Waterbury, 06702","phone":"2035759944"},"Master-CM916019":{"lat":41.8349876,"lng":-72.4555587,"address":"40 New Park Dr, Vernon Rockville, 06066"},"Master-CM805751":{"dealer":"Patterson","lat":41.65646,"lng":-70.91988,"address":"81 Coggeshall St New Bedford"},"Master-CM1113801":{"orders":"Nicole","notes":"Jasmine in charge of setting up LNL at this location and Stratford.\nMet with Dr. Yoon. He is sold on OBU360 and Simplishade/ might want to inquire about Harmonize","visitNotes":"met with Dr. Yoon. went over BCC. stated he is calling John to order 360 and SS. may want to try Harmonize","lastVisit":"2025-10-23","lat":41.10203,"lng":-73.44004,"address":"360 Connecticut Ave, Norwalk, 06854","phone":"2038310080"},"Master-CM915054":{"notes":"Jasmine is going to reach out to Schedule LNL","lat":41.20279,"lng":-73.1161,"address":"200 E Main St, Stratford, 06614"},"Master-CM485235":{"lat":41.98495,"lng":-72.65868,"address":"230 Mountain Rd, Suffield, 06078","phone":"8606686128"},"Master-CM114147":{"dealer":"Patterson","lat":41.75485,"lng":-71.45508,"address":"105 Sockanosset Cross Rd Cranston"},"Master-CM1508667":{"lat":41.51898,"lng":-72.99133,"address":"115 Waterbury Rd, Prospect, 06712"},"Master-CM079236":{"lat":41.78498,"lng":-72.74701,"address":"345 N Main St, West Hartford, 06117","phone":"8602366888"},"Master-CM876357":{"lat":41.19174,"lng":-73.12976,"address":"2268 Main St, Stratford, 06615","phone":"2033759925"},"Master-CM873811":{"lat":41.18227,"lng":-73.25307,"address":"2226 Black Rock Tpke, Fairfield, 06825","phone":"2032098008"},"Master-CM894517":{"lat":41.29629,"lng":-73.22772,"address":"15 Corporate Dr, Trumbull, 06611","phone":"2032682600"},"Master-CM705315 Total":{"lat":41.39264,"lng":-73.45514,"address":"47 West St, Danbury, 06810","phone":"2033235439"},"Master-CM104179":{"lat":41.40809,"lng":-73.45597,"address":"85 North St, Danbury, 06810","phone":"2037434770"},"Master-CM051399":{"lat":41.76505,"lng":-72.73155,"address":"836 Farmington Ave, West Hartford, 06119","phone":"8602318077"},"Master-CM057034":{"lat":41.75428,"lng":-72.76671,"address":"1245 Farmington Ave, West Hartford, 06107","phone":"8603130025"},"Master-CM1090475 Total":{"lat":41.2163,"lng":-73.42919,"address":"436 Danbury Rd, Wilton, 06897","phone":"2037625100"},"Master-CM1090475":{"doctor":"Dr. Aris","orders":"Louisa-Bel","dealerRep":"Paul Waters -Patterson","lat":41.2163,"lng":-73.42919,"address":"436 Danbury Rd, Wilton, 06897","phone":"2037625100","email":"drjamesaris@aol.com"},"Master-CM222683":{"dealer":"All Other","lat":42.08531,"lng":-71.40742,"address":"233 W Central St Franklin"},"Master-CM232475":{"dealer":"Patterson","lat":41.46703,"lng":-72.67939,"address":"16 Main St Durham"},"Master-CM263573 Total":{"doctor":"Oberhand","orders":"Hannah","dealerRep":"Lyndon-Benco","notes":"Simplishade\nOptibond\nMaxcem\n\nHuge Rotary\n\n3 million a year account","visitNotes":"dropped off Apron and Mix Tips with Hannah","lastVisit":"2023-03-23","feel":"5.0","lat":41.277473,"lng":-73.22673970000001,"address":"6500 Main St, Trumbull, CT 06611, USA","phone":"2033721220"},"Master-CM263573":{"dealerRep":"Lyndon-Benco","lat":41.29619,"lng":-73.22883,"address":"105 Technology Dr, Trumbull, 06611","phone":"2033721220","email":"elizabeth@jasonoberhanddds.com","doctor":"Oberhand","dealer_rep":"Lyndon-Benco","notes":"Simplishade\nOptibond\nMaxcem\n\nHuge Rotary\n\n3 million a year account","feel":"5"},"Master-CM1972523":{"dealer":"Darby","lat":41.78264,"lng":-72.53184,"address":"165 Middle Tpke W Manchester"},"Master-CM896344":{"dealer":"Benco","lat":41.46282,"lng":-73.16145,"address":"30 Quaker Farms Rd Southbury"},"Master-CM328091":{"lat":41.87806,"lng":-73.4764,"address":"22 Upper Main St, Sharon, 06069","phone":"8603645006"},"Master-CM138234":{"lat":41.13314,"lng":-73.37354,"address":"273 Post Rd W, Westport, 06880","phone":"2032267788"},"Master-CM1104022":{"lat":41.11141,"lng":-73.40652,"address":"5 Eversley Ave, Norwalk, 06851","phone":"2038530669"},"Master-CM857404":{"lat":41.06291,"lng":-73.54276,"address":"1500 Summer St, Stamford, 06905","phone":"2033246171"},"Master-CM075600":{"dealer":"Darby","lat":41.07295,"lng":-73.77658,"address":"50 Legion Dr Valhalla"},"Master-CM096621":{"notes":"Bought eMotion in October 2021","lat":42.02703,"lng":-73.33441,"address":"60 Church St, Canaan, 06018","phone":"8608245101"},"Master-CM230588":{"notes":"Down\n7K NX3 Cement\n1K Optibond Solo Plus","dealer":"Benco","lat":41.08684,"lng":-73.80538,"address":"100 Woods Rd Valhalla"},"Master-CM063082":{"dealer":"Schein","lat":41.39248,"lng":-70.52323,"address":"207 Upper Main St Edgartown"},"Master-CM175960":{"dealer":"Schein","lat":41.84637,"lng":-71.35249,"address":"1002 Pawtucket Ave Rumford"},"Master-CM225946":{"lat":41.06773,"lng":-73.48963,"address":"106 Noroton Ave, Darien, 06820","phone":"2032027728"},"Master-CM733733":{"dealer":"Darby","lat":41.70289,"lng":-71.45689,"address":"35 Veterans Memorial Dr Warwick"},"Master-CM863224":{"dealer":"Patterson","lat":40.96576,"lng":-73.71721,"address":"163 Halstead Ave Harrison"},"Master-CM1077621":{"lat":41.76485,"lng":-72.67395,"address":"1 Financial Plz, Hartford, 06103","phone":"8602475130"},"Master-CM073303":{"lat":41.75777,"lng":-72.74348,"address":"61 S Main St, West Hartford, 06107","phone":"8606450111"},"Master-CM1140186":{"lat":41.7507999,"lng":-72.7187497,"address":"65 Kane St, Tarrytown, 10591","phone":"2123332027"},"Master-CM187009":{"dealer":"Patterson","lat":41.26029,"lng":-72.94332,"address":"141 Captain Thomas Blvd West Haven"},"Master-CM265340":{"dealer":"Patterson","lat":42.09172,"lng":-71.42631,"address":"38 Pond St Franklin"},"Master-CM177504":{"dealer":"Schein","lat":41.19916,"lng":-73.71929,"address":"105 S Bedford Rd Mount Kisco"},"Master-CM1100829":{"lat":41.43685,"lng":-73.49824,"address":"120 Clapboard Ridge Rd, Danbury, 06811","phone":"2037445941"},"Master-CM055089":{"visitNotes":"Samp Drop:\nSS\nOBU extra\nHerc Flow\ntake 1 retraction \nZircut","lastVisit":"2022-04-19","dealer":"Schein","lat":41.54408,"lng":-73.07816,"address":"26 Lakeside Blvd E Waterbury","phone":"2037544123","notes":"crm as Dr. Israel who is next door and periodontist.  incorrect in CRM\nused Pentron producs\nMarta is front desk\nDr. Mirani does his own ordering"},"Master-CM709172":{"lat":41.17217,"lng":-73.2291,"address":"501 Kings Hwy E, Fairfield, 06825","phone":"2033710300"},"Master-CM093317":{"notes":"Big Optibond User\nMainly uses Patterson\n\nLeft samples of Simplicity\n\ninfo@newcannonct.com","lat":41.14,"lng":-73.49053,"address":"208 South Ave, New Canaan, 06840","phone":"2039665944"},"Master-CM896298":{"dealer":"Schein","lat":42.01688,"lng":-71.47015,"address":"2000 Diamond Hill Rd Woonsocket"},"Master-CM875626":{"lat":41.72715,"lng":-73.4755,"address":"37 N Main St, Kent, 06757","phone":"8609273519"},"Master-CM148042":{"dealerRep":"Rich F Schein","lat":41.2901,"lng":-73.49695,"address":"42 Danbury Rd, Ridgefield, 06877","phone":"2034388866"},"Master-CM062953":{"lat":41.54806,"lng":-73.0697,"address":"650 Chase Pkwy, Waterbury, 06708","phone":"2035738034"},"Master-CM920073":{"lat":41.73435,"lng":-72.79626,"address":"291 Farmington Ave, Farmington, 06032","phone":"8606778666"},"Master-CM098875":{"lat":41.71975,"lng":-72.69448,"address":"1402 Berlin Tpke, Wethersfield, 06109","phone":"8609561396"},"Master-CM1102214":{"lat":41.28235,"lng":-73.49665,"address":"31 Bailey Ave, Ridgefield, 06877"},"Master-CM1075486":{"lat":41.8554,"lng":-72.3407,"address":"359 Merrow Rd, Tolland, 06084","phone":"8608759000"},"Master-CM1587680":{"dealer":"Benco","lat":41.27613,"lng":-72.83467,"address":"904 W Main St Branford"},"Master-CM1247726":{"lat":41.70266,"lng":-72.47522,"address":"206 Partridge Lndg, Glastonbury, 06033","phone":"8605212500"},"Master-CM859114":{"dealer":"Schein","lat":41.60033,"lng":-72.6757,"address":"26 Shunpike Rd Cromwell"},"Master-CM1075072":{"lat":41.06405,"lng":-73.53787,"address":"95 Morgan St, Stamford, 06907","phone":"2033235905"},"Master-CM1733410":{"lat":41.76753,"lng":-72.69849,"address":"291 Farmington Ave, New Hartford, 06057"},"Master-CM527543":{"lat":41.29619,"lng":-73.22883,"address":"105 Technology Dr, Trumbull, 06611","phone":"2032618749"},"Master-CM869444":{"lat":41.72655,"lng":-72.80111,"address":"11 South Rd, Farmington, 06032","phone":"8603217715"},"Master-CM1587462":{"lat":41.7215,"lng":-72.61442,"address":"2874 Main St, Glastonbury, 06033"},"Master-CM858842":{"lat":41.86369,"lng":-72.8096,"address":"573 Hopmeadow St, Simsbury, 06070","phone":"8606580010"},"Master-CM869955":{"dealer":"Darby","lat":42.18649,"lng":-71.30974,"address":"5 N Meadows Rd Medfield"},"Master-CM928576":{"lat":41.82565,"lng":-73.10356,"address":"57 Commercial Blvd, Torrington, 06790","phone":"8604961200"},"Master-CM921710":{"lat":41.04895,"lng":-73.56377,"address":"2001 W Main St, Stamford, 06902","phone":"2039781184"},"Master-CM164144":{"dealer":"All Other","lat":41.12159,"lng":-73.9503,"address":"472 Kings Hwy Valley Cottage"},"Master-CM903925":{"dealer":"Patterson","lat":41.73142,"lng":-71.44245,"address":"615 Jefferson Blvd Warwick"},"Master-CM692567":{"lat":41.06448,"lng":-73.53665,"address":"90 Morgan St, Stamford, 06905","phone":"2033279966"},"Master-CM1606900":{"lat":41.11795,"lng":-73.41275,"address":"37 Wall St, Norwalk, 06850"},"Master-CM082777":{"dealer":"Patterson","lat":41.43076,"lng":-73.68021,"address":"99 Gleneida Ave Carmel"},"Master-CM068959":{"lat":41.2349,"lng":-73.14847,"address":"160 Hawley Ln, Trumbull, 06611","phone":"2032206610"},"Master-CM1391296":{"lat":41.81315,"lng":-72.93522,"address":"3 Sweetheart Mountain Rd, Collinsville, 06019"},"Master-CM1340801":{"dealer":"Patterson","lat":41.29611,"lng":-72.3779,"address":"670 Boston Post Rd Old Saybrook"},"Master-CM1340801 Total":{"lat":41.29611,"lng":-72.3779,"address":"670 Boston Post Rd, Old Saybrook, 06475","phone":"8606615163"},"Master-CM111591":{"dealer":"Benco","lat":41.5487,"lng":-72.69499,"address":"9 Meriden Rd Rockfall"},"Master-CM1144213":{"lat":41.83499,"lng":-72.49304,"address":"219 Talcottville Rd, Vernon, 06066","phone":"8608752881"},"Master-CM2014798":{"dealer":"Patterson","lat":41.39405,"lng":-73.51388,"address":"100 Mill Plain Rd Danbury"},"Master-CM151926":{"dealer":"All Other","lat":41.14657,"lng":-73.36158,"address":"251 Main St Westport"},"Master-CM928359":{"lat":41.05767,"lng":-73.53689,"address":"99 Prospect St, Stamford, 06901","phone":"2035042786"},"Master-CM187123 Total":{"doctor":"Dr. Condon","orders":"Laura","dealerRep":"Ryan M - Patterson","notes":"Buying Herculite and temp bond no Bond or Cement","lat":41.4165,"lng":-73.36898,"address":"172 Mount Pleasant Rd, Newtown, 06470","phone":"2034260045"},"Master-CM200329":{"lat":41.55671,"lng":-73.04077,"address":"2 Main St, Waterbury, 06708","phone":"2035978878"},"Master-CM074354":{"dealer":"Schein","lat":41.01567,"lng":-73.7965,"address":"101 E Hartsdale Ave Hartsdale"},"Master-CM590187":{"dealer":"Schein","lat":42.26757,"lng":-71.17597,"address":"110 Bridge St Dedham"},"Master-CM859042":{"lat":41.75731,"lng":-72.88834,"address":"30 Mill St, Unionville, 06085"},"Master-CM119992":{"dealer":"Schein","lat":40.94857,"lng":-73.7924,"address":"77 Quaker Ridge Rd New Rochelle"},"Master-CM1959968":{"dealer":"Schein","lat":41.77979,"lng":-69.99301,"address":"48 Eldredge Park Way Orleans"},"Master-CM378846":{"lat":41.01805,"lng":-73.64502,"address":"500 W Putnam Ave, Greenwich, 06830","phone":"2038692510"},"Master-CM1869561":{"dealer":"All Other","lat":41.6361,"lng":-71.06304,"address":"30 Fieldstone Dr Westport"},"Master-CM087939":{"lat":41.73553,"lng":-72.62721,"address":"170 Main St, East Hartford, 06118","phone":"8605683366"},"Master-CM080233":{"lat":41.04013,"lng":-73.59428,"address":"453 E Putnam Ave, Cos Cob, 06807","phone":"2038692552"},"Master-CM858717":{"lat":41.9267,"lng":-73.07576,"address":"10 Hinsdale Ave, Winsted, 06098","phone":"8603799871"},"Master-CM280449":{"dealer":"All Other","lat":41.9267,"lng":-73.07576,"address":"10 Hinsdale Ave Winsted"},"Master-CM097850":{"dealer":"Benco","lat":41.48539,"lng":-72.10124,"address":"14 Gallivan Ln Uncasville"},"Master-CM2017537":{"dealer":"Darby","lat":41.31767,"lng":-74.15339,"address":"128 Bailey Farm Rd Monroe"},"Master-CM585014":{"lat":41.12806,"lng":-73.42287,"address":"205 Main St, Norwalk, 06851","phone":"2038571900"},"Master-CM211029":{"dealer":"Darby","lat":42.02296,"lng":-70.68427,"address":"24 Bay Rd Duxbury"},"Master-CM975988":{"dealer":"Benco","lat":42.03073,"lng":-71.2324,"address":"292 Chauncy St Mansfield","email":"jeff@dynamicdentalinc.com"},"Master-CM975988 Total":{"lat":42.03073,"lng":-71.2324,"address":"292 Chauncy St, Mansfield, 02048","phone":"5082619261"},"Master-CM906829":{"lat":41.52992,"lng":-73.08706,"address":"765 Straits Tpke, Middlebury, 06762"},"Master-CM118941":{"lat":41.1099,"lng":-73.40967,"address":"148 East Ave, Norwalk, 06851","phone":"2038668121"},"Master-CM061359":{"dealer":"Schein","lat":41.77484,"lng":-70.00882,"address":"11 Bay State Ct Brewster"},"Master-CM083841":{"lat":41.77727,"lng":-72.51677,"address":"147 E Center St, Manchester, 06040","phone":"8606439506"},"Master-CM062409":{"dealer":"Schein","lat":41.90282,"lng":-71.03435,"address":"166 Paramount Dr Raynham"},"Master-CM912246":{"lat":41.8611,"lng":-72.35903,"address":"6 Fieldstone Cmns, Tolland, 06084"},"Master-CM224619":{"dealer":"Schein","lat":41.88194,"lng":-70.90374,"address":"70 E Grove St Middleboro"},"Master-CM371036":{"lat":41.76866,"lng":-72.70245,"address":"19 Woodland St, East Hartford, 06108","phone":"8602893047"},"Master-CM085661":{"dealer":"Schein","lat":40.9131,"lng":-73.79064,"address":"140 Lockwood Ave New Rochelle"},"Master-CM1903543":{"doctor":"Dr. Kay","orders":"Kaitlin Corcoran","dealerRep":"Vincent Parrillo","notes":"https://prod-useast-b.online.tableau.com/#/site/envistaholdings/views/NAConsumablesCRMiFRAMES/NA-KERRCONSUMABLESSELLOUT?:display_count=n&:iid=1&:showAppBanner=false&:showVizHome=n&MDMCustKey=Master-CM1903543","visitNotes":"Met with Dr. Kay.  He stated he will be placing big order on Maxcem shortly.  Still trying to get him to switch to OBU.  Currently using the Viva Pen","lastVisit":"2025-05-22","feel":"5.0","accelLevel":"Diamond","dealer":"All Other","lat":41.43981,"lng":-74.3714,"address":"674 E Main St Middletown","phone":"845-343-1486","email":"Kaitlin@smilesinoc.com","dealer_rep":"Vincent Parrillo"},"Master-CM60437":{"dealer":"Patterson","lat":41.13984,"lng":-73.25827,"address":"69 Sherman St Fairfield","email":"fjzaino@hotmail.com","phone":"203-255-1545"},"Master-CM191084":{"lat":41.64782,"lng":-72.6796,"address":"825 Cromwell Ave, Rocky Hill, 06067","phone":"8607219002"},"Master-CM528878":{"lat":41.22127,"lng":-73.16957,"address":"961 Huntington Tpke, Bridgeport, 06610","phone":"2033726640"},"Master-CM528129":{"lat":41.67808,"lng":-72.95125,"address":"395 W Avon Rd, Bristol, 06010","phone":"8605840171"},"Master-CM876148":{"lat":41.06192,"lng":-73.54231,"address":"1290 Summer St, Stamford, 06905","phone":"2033482411"},"Master-CM894921":{"dealer":"Schein","lat":42.01813,"lng":-71.00776,"address":"18 Central Sq West Bridgewater"},"Master-CM313684":{"lat":41.67125,"lng":-72.60161,"address":"1037 Main St, Hartford, 06105","phone":"8602472532"},"Master-CM156329":{"lat":41.24459,"lng":-73.196,"address":"888 White Plains Rd, Trumbull, 06611","phone":"2032615000"},"Master-CM972024":{"doctor":"Dr. Nguyen","dealer":"Darby","lat":41.60322,"lng":-72.68618,"address":"1 Willowbrook Rd Cromwell"},"Master-CM078011":{"dealer":"Schein","lat":41.27103,"lng":-73.78161,"address":"334 Kear St Yorktown Heights"},"Master-CM894608":{"lat":41.76258,"lng":-72.74129,"address":"10 N Main St, West Hartford, 06107","phone":"8605612121"},"Master-CM1163353":{"lat":41.09762,"lng":-73.50912,"address":"19 Kensett Ln, Darien, 06820"},"Master-CM934241":{"lat":41.64936,"lng":-72.78725,"address":"211 New Britain Rd, Kensington, 06037","phone":"8602249879"},"Master-CM133964":{"lat":41.10442,"lng":-73.42447,"address":"39 E Cedar St, Norwalk, 06851","phone":"2038460400"},"Master-CM837357":{"lat":41.0162397,"lng":-73.646757,"address":"55 Nye Rd, Greenwich, 06830","phone":"2036227504"},"Master-CM197933":{"lat":41.72575,"lng":-72.82361,"address":"771 Farmington Ave, Farmington, 06032","phone":"8606772226"},"Master-CM136118":{"lat":41.27699,"lng":-72.94969,"address":"233 Elm St, West Haven, 06516","phone":"2039332223"},"Master-CM137878":{"lat":41.73304,"lng":-72.73193,"address":"1132 New Britain Ave, West Hartford, 06110","phone":"8602366928"},"Master-CM300371":{"accelLevel":"Platinum","lat":41.81537,"lng":-73.09594,"address":"1151 E Main St, Torrington, 06790","phone":"8604822572"},"Master-CM135335":{"dealer":"Schein","lat":42.12184,"lng":-71.17937,"address":"6 Washington Pl Sharon"},"Master-CM116875 Total":{"lat":41.41439,"lng":-73.30585,"address":"11 Church Hill Rd, Newtown, 06470","phone":"2034265891"},"Master-CM048623":{"lat":41.57589,"lng":-73.41252,"address":"30 Bridge St, New Milford, 06776","phone":"8603546006"},"Master-CM858662":{"dealer":"Schein","lat":41.94938,"lng":-70.70862,"address":"1 Scobee Cir Plymouth"},"Master-CM264158":{"doctor":"Dr. Alliger","dealerRep":"Jeff T - Schein","lat":41.54926,"lng":-73.06589,"address":"1389 W Main St, Waterbury, 06708","phone":"2037571287","dealer_rep":"Jeff T - Schein"},"Master-CM086927":{"lat":41.11409,"lng":-73.4082,"address":"120 East Ave, Norwalk, 06851","phone":"2038530880"},"Master-CM722586":{"lat":41.84437,"lng":-72.55904,"address":"1050 Sullivan Ave, South Windsor, 06074","phone":"2137407785"},"Master-CM573905":{"lat":41.82275,"lng":-73.10318,"address":"245 Alvord Park Rd, Torrington, 06790","phone":"8604892190"},"Master-CM062794":{"notes":"buys From Darby\nOnly buys TC products","visitNotes":"Q3 Spiff\nsamps: Simplicity \nNTI Turbo","lastVisit":"2022-08-02","lat":41.98987,"lng":-72.57253,"address":"71 Hazard Ave, Enfield, 06082","phone":"8607492225"},"Master-CM1042342":{"lat":41.98804,"lng":-72.55625,"address":"155 Hazard Ave, Enfield, 06082","phone":"8607493169"},"Master-CM380255":{"orders":"Jennifer Gonzalez","notes":"John Richardson Procurement Manager","visitNotes":"Jennifer off on Wednesday - call on Thursday to Schedule lnl","lastVisit":"2025-09-24","lat":41.98835,"lng":-72.57531,"address":"54 Hazard Ave, Enfield, 06082","phone":"8607458800"},"Master-CM1133401 Total":{"lat":42.10002,"lng":-72.58542,"address":"3rd Floor 1049 Main St, Springfield, 01103","phone":"9999999999"},"Master-CM1230158":{"lat":41.13819,"lng":-73.30885,"address":"1580 Post Rd E, Westport, 06880","phone":"2033718282"},"Master-CM365301":{"lat":41.7371,"lng":-72.79293,"address":"231 Farmington Ave, Farmington, 06032","phone":"8606777007"},"Master-CM940379":{"lat":41.12061,"lng":-73.40666,"address":"55 East Ave, Norwalk, 06851","phone":"2038498633"},"Master-CM052414":{"dealer":"Schein","lat":41.68529,"lng":-71.56114,"address":"121 Sandy Bottom Rd Coventry"},"Master-CM146377":{"lat":41.68416,"lng":-72.59958,"address":"1420 Main St, Glastonbury, 06033","phone":"8606590307"},"Master-CM135733":{"lat":41.02975,"lng":-73.56666,"address":"284 Sound Beach Ave, Old Greenwich, 06870","phone":"2036374660"},"Master-CM803978":{"lat":41.09754,"lng":-73.4453,"address":"550 Connecticut Ave, Norwalk, 06854","phone":"2038557556"},"Master-CM216040":{"lat":41.90543,"lng":-72.61621,"address":"44 S Main St, East Windsor, 06088","phone":"8602546955"},"Master-CM1144490":{"lat":41.12819,"lng":-73.37054,"address":"327 Riverside Ave, Westport, 06880","phone":"2032273421"},"Master-CM073347":{"dealer":"Patterson","lat":41.06092,"lng":-73.53391,"address":"26 Strawberry Hill Ave Stamford","phone":"2033489338","feel":"3"},"Master-CM921530":{"dealer":"Schein","lat":41.61057,"lng":-70.91674,"address":"160 Rodney French Blvd New Bedford"},"Master-CM080235 Total":{"lat":41.91956,"lng":-71.3571,"address":"3 Howarth Ave, Attleboro, 02703","phone":"5087615320"},"Master-CM080235":{"dealer":"Schein","lat":41.91956,"lng":-71.3571,"address":"3 Howarth Ave Attleboro","email":"jphelandmd@cox.net","phone":"5087615320"},"Master-CM297639":{"lat":41.82647,"lng":-72.5556,"address":"1741 Ellington Rd, South Windsor, 06074","phone":"8772663334"},"Master-CM937574":{"lat":41.12769,"lng":-73.38629,"address":"493 Westport Ave, Norwalk, 06851","phone":"2038428658"},"Master-CM126631":{"lat":41.14106,"lng":-73.26213,"address":"1735 Post Rd, Fairfield, 06824","phone":"2032591460"},"Master-CM213565":{"lat":41.14098,"lng":-73.25575,"address":"1047 Old Post Rd, Fairfield, 06824","phone":"2032542006"},"Master-CM197886 Total":{"lat":41.15091,"lng":-73.2418,"address":"320 Post Rd, Fairfield, 06824","phone":"2032543780"},"Master-CM197886":{"orders":"Cathy","dealerRep":"Ryan M - Patterson","notes":"Dr. Donahue\nDr. Forella\nCathy PM\n\nBig Take 1 user","visitNotes":"left Cathy info on KKP, all the Q4 promos and Samos of take 1 retraction paste","lastVisit":"2022-11-08","feel":"3.0","lat":41.15091,"lng":-73.2418,"address":"320 Post Rd, Fairfield, 06824","phone":"2032543780","email":"piaropoli240@charter.net"},"Master-CM170880":{"lat":41.14047,"lng":-73.26654,"address":"1979 Post Rd, Fairfield, 06824","phone":"2032552841"},"Master-CM144910":{"lat":41.06001,"lng":-73.53995,"address":"999 Summer St, Stamford, 06905","phone":"2033253636"},"Master-CM316951":{"lat":41.14266,"lng":-73.25539,"address":"1300 Post Rd, Fairfield, 06824","phone":"2032548050"},"Master-CM081983":{"lat":41.14464,"lng":-73.25092,"address":"111 Beach Rd, Fairfield, 06824","phone":"2032569500"},"Master-CM102329":{"lat":41.14463,"lng":-73.25135,"address":"71 Beach Rd, Fairfield, 06824","phone":"2032557771"},"Master-CM261040":{"lat":41.16645,"lng":-73.23497,"address":"1100 Kings Hwy E, Fairfield, 06825","phone":"2033350020"},"Master-CM094043":{"dealer":"Schein","lat":41.5615,"lng":-70.61151,"address":"210 Jones Rd Falmouth"},